DAM_ID,Project name,Continent,Country,Main_river,Major Basin,Capacity (MW),LAT_cleaned,Lon_Cleaned,Stage,Start,End,Reference 1,Reference 2,Reference 3
0,Susitna-Watana,North America,United States,Susitna,Pacific and Arctic Coast 1,600,62.786772,-148.02578,P,2012,2023,http://www.hydroreform.org/projects/susitna-watana-p-14241,,
1,Site C,North America,Canada,Peace,Mackenzie,900,56.225245,-120.950245,P,2014,2020,http://en.wikipedia.org/wiki/Site_C_dam,https://www.sitecproject.com/sites/default/files/site_c_project_description.pdf,
2,Gull Island,North America,Canada,Churchill,Churchill,2250,53.03287948,-61.21295386,U,,2028,http://en.wikipedia.org/wiki/Lower_Churchill_Project /,http://www.nalcorenergy.com/lower-churchill-project.asp,
3,Muskrat,North America,Canada,Churchill,Churchill,824,53.24462517,-60.77379183,U,,2017,http://en.wikipedia.org/wiki/Lower_Churchill_Project,http://www.nalcorenergy.com/lower-churchill-project.asp,
4,Conawapa,North America,Canada,Nelson,Saskatchewan - Nelson,1485,56.53541667,-94.029465,P,,2022,http://www.energymanitoba.org/hp_conawapa.htm,,
5,Courbe Du Sault (Sheldrake),North America,Canada,Churchill,St Lawrence,25,50.29791667,-64.765503,P,,,"Lee, P. G., Matt Hanneman and Ryan Cheng (2011) /",http://www.hydroquebec.com/4d_includes/depdoc/cpe/fr/Carte_Soumissions_retenues.pdf,
6,Franquelin,North America,Canada,Manicouagan,St Lawrence,9.9,49.299293,-67.96041667,P,,,"Lee, P. G., Matt Hanneman and Ryan Cheng (2011) /",http://www.hydroquebec.com/4d_includes/depdoc/cpe/fr/Carte_Soumissions_retenues.pdf,
7,Chute Du Quatre Milles,North America,Canada,Manicouagan,St Lawrence,5.5,48.7314385,-69.1689385,P,,,"Lee, P. G., Matt Hanneman and Ryan Cheng (2011) /",http://www.hydroquebec.com/4d_includes/depdoc/cpe/fr/Carte_Soumissions_retenues.pdf,
8,Chutes Du Six Milles,North America,Canada,Manicouagan,St Lawrence,13.2,48.750756,-69.19791667,P,,,"Lee, P. G., Matt Hanneman and Ryan Cheng (2011) /",http://www.hydroquebec.com/4d_includes/depdoc/cpe/fr/Carte_Soumissions_retenues.pdf,
9,Pont-Arnaud,North America,Canada,Saguenay,St Lawrence,8,48.45208333,-71.164703,P,,,"Lee, P. G., Matt Hanneman and Ryan Cheng (2011) /",http://www.hydroquebec.com/4d_includes/depdoc/cpe/fr/Carte_Soumissions_retenues.pdf,
10,11E Chute (Rivière Mistassini),North America,Canada,Saguenay,St Lawrence,16,49.00208333,-72.457581,P,,,"Lee, P. G., Matt Hanneman and Ryan Cheng (2011) /",http://www.hydroquebec.com/4d_includes/depdoc/cpe/fr/Carte_Soumissions_retenues.pdf,
11,Val-Jalbert,North America,Canada,Saguenay,St Lawrence,16,48.3961085,-72.1663915,P,,,"Lee, P. G., Matt Hanneman and Ryan Cheng (2011) /",http://www.hydroquebec.com/4d_includes/depdoc/cpe/fr/Carte_Soumissions_retenues.pdf,
12,Chute-Garneau,North America,Canada,Saguenay,St Lawrence,5.3,48.383922,-71.13125,P,,,"Lee, P. G., Matt Hanneman and Ryan Cheng (2011) /",http://www.hydroquebec.com/4d_includes/depdoc/cpe/fr/Carte_Soumissions_retenues.pdf,
13,Manouane Sipi,North America,Canada,St.-Maurice,St Lawrence,22,47.58094483,-73.66072183,P,,,"Lee, P. G., Matt Hanneman and Ryan Cheng (2011) /",http://www.hydroquebec.com/4d_includes/depdoc/cpe/fr/Carte_Soumissions_retenues.pdf,
14,Hydro-Canyon Saint-Joachim,North America,Canada,Saint John,St Lawrence,23.2,47.081097,-70.868903,P,,,"Lee, P. G., Matt Hanneman and Ryan Cheng (2011) /",http://www.hydroquebec.com/4d_includes/depdoc/cpe/fr/Carte_Soumissions_retenues.pdf,
15,Saint-Gabriel,North America,Canada,St.-Maurice,St Lawrence,3.3,46.823878,-71.626122,P,,,"Lee, P. G., Matt Hanneman and Ryan Cheng (2011) /",http://www.hydroquebec.com/4d_includes/depdoc/cpe/fr/Carte_Soumissions_retenues.pdf,
16,Chutes De Sainte-Ursule,North America,Canada,,St Lawrence,1.8,46.294584,-73.082084,P,,,"Lee, P. G., Matt Hanneman and Ryan Cheng (2011) /",http://www.hydroquebec.com/4d_includes/depdoc/cpe/fr/Carte_Soumissions_retenues.pdf,
17,Murphy Creek,North America,Canada,Columbia,Columbia and Northwestern United States,275,49.15804117,-117.7252922,P,,,http://www.bchydro.com/etc/medialib/internet/documents,"Lee, P. G., Matt Hanneman and Ryan Cheng",
18,Elaho,North America,Canada,Fraser,Pacific and Arctic Coast 1,200,50.13416683,-123.4800002,P,,,http://www.bchydro.com/etc/medialib/internet/documents,"Lee, P. G., Matt Hanneman and Ryan Cheng",
19,Mcgregor Lower Canyon,North America,Canada,Fraser,Fraser,360,54.22291667,-121.776368,P,,,http://www.bchydro.com/etc/medialib/internet/documents,"Lee, P. G., Matt Hanneman and Ryan Cheng",
20,Border,North America,United States,Columbia,Columbia and Northwestern United States,275,48.98362,-117.6395833,P,,,http://www.bchydro.com/etc/medialib/internet/documents,"Lee, P. G., Matt Hanneman and Ryan Cheng",
21,Homathko River,North America,Canada,Nechako,Pacific and Arctic Coast 1,895,51.40208333,-124.561877,P,,,http://www.bchydro.com/etc/medialib/internet/documents,"Lee, P. G., Matt Hanneman and Ryan Cheng",
22,Liard River,North America,Canada,Liard,Mackenzie,4318,59.386524,-124.86616,P,,,http://www.bchydro.com/etc/medialib/internet/documents,"Lee, P. G., Matt Hanneman and Ryan Cheng",
23,Iskut River,North America,Canada,Stikine,Pacific and Arctic Coast 1,980,56.97003567,-130.3382977,P,,,http://www.bchydro.com/etc/medialib/internet/documents,"Lee, P. G., Matt Hanneman and Ryan Cheng",
24,Low Site E,North America,Canada,Peace,Mackenzie,675,56.11772667,-120.0656067,P,,,http://www.bchydro.com/etc/medialib/internet/documents,"Lee, P. G., Matt Hanneman and Ryan Cheng",
25,Dunvegan,North America,Canada,Peace,Mackenzie,100,55.927739,-118.640239,P,,,"http://www.ceaa.gc.ca/050/documents_staticpost/cearref_2996/166-06.pdf & Lee, P. G., Matt Hanneman and Ryan Cheng (2011","Lee, P. G., Matt Hanneman and Ryan Cheng",
26,Little Jackfish River,North America,Canada,,St Lawrence,78,50.401406,-88.31041667,P,2013,2016,http://www.littlejackfish.com/pdf/LJF_lower_map.pdf / canada pdf &/ http://www.littlejackfish.com/pdf/LJF_Project_description30Aug2011.pdf,,
27,Keeyask,North America,Canada,Nelson,Saskatchewan - Nelson,695,56.34949333,-95.17967333,U,,,World Atlas / http://keeyask.com/wp/the-project,,
30,Dillingham,North America,United States,Kuskokwim,Pacific and Arctic Coast 1,3.2,59.794762,-158.552999,P,,,http://www.hydroreform.org/projects/dillingham-p-14356,,
32,Allison Creek,North America,United States,Copper,Pacific and Arctic Coast 1,6.5,61.050642,-146.352425,P,,,WEC - http://www.worldenergy.org/documents/ser_2010_report_1.pdf,/ http://www.hydroreform.org/projects/allison-creek-p-13124,
33,Chikuminuk Lake,North America,United States,Kuskokwim,Pacific and Arctic Coast 1,13.4,60.174648,-158.747749,P,,,WEC - http://www.worldenergy.org/documents/ser_2010_report_1.pdf,,
34,Grant Lake,North America,United States,Susitna,Pacific and Arctic Coast 1,5,60.46127,-149.337291,P,,,WEC - http://www.worldenergy.org/documents/ser_2010_report_1.pdf /,http://www.kenaihydro.com/about_the_project/project_area.php,
35,Ruth Lake,North America,United States,Iliamna Lake Outlet,Pacific and Arctic Coast 1,20,57.582458,-156.134714,P,,,WEC - http://www.worldenergy.org/documents/ser_2010_report_1.pdf /,http://www.hydroreform.org/projects/ruth-lake-p-13366,
36,Scenery Lake,North America,United States,Stikine,Pacific and Arctic Coast 1,30,57.08060167,-132.7902317,P,,,WEC - http://www.worldenergy.org/documents/ser_2010_report_1.pdf /,http://www.hydroreform.org/projects/scenery-lake-p-13365,
37,Schubee Lake,North America,United States,,Pacific and Arctic Coast 1,4.9,59.39791667,-135.30625,P,,,WEC - http://www.worldenergy.org/documents/ser_2010_report_1.pdf,,
38,Soule,North America,United States,Skeena,Pacific and Arctic Coast 1,75,55.87099124,-130.1834912,P,,,WEC - http://www.worldenergy.org/documents/ser_2010_report_1.pdf /,http://www.hydroreform.org/projects/schubee-lake-p-13645,
39,Petit-Mécatina,North America,Canada,Churchill,St Lawrence,1200,50.86041667,-65.96875,P,,2026,World Atlas /,https://maps.google.ca/maps/ms?msa=0&msid=201101750506570570762.0004c84497fb28f311de2,http://www.hydroforthefuture.com/projets/9/developing-quebec-s-hydropower-potential
40,Magpie,North America,Canada,Churchill,St Lawrence,850,50.994134,-65.880866,P,,2026,World Atlas /,http://www.hydroquebec.com/publications/en/strategic_plan/pdf/plan-strategique-2009-2013.pdf,
41,Romaine 1,North America,Canada,Natashquan,Atlantic Ocean Seaboard,290,50.38453917,-63.26129417,U,,2016,http://en.wikipedia.org/wiki/List_of_electrical_generating_stations_in_Quebec,http://www.hydroquebec.com/romaine/pdf/ei_volume01.pdf,http://www.hydroquebec.com/publications/en/sd_action_plan/pdf/plan_action_dd.pdf
42,Romaine 2,North America,Canada,Natashquan,Atlantic Ocean Seaboard,640,50.62708333,-63.192802,U,,2014,http://en.wikipedia.org/wiki/List_of_electrical_generating_stations_in_Quebec,http://www.hydroquebec.com/romaine/pdf/ei_volume01.pdf,http://www.hydroquebec.com/publications/en/sd_action_plan/pdf/plan_action_dd.pdf
43,Romaine 3,North America,Canada,Natashquan,Atlantic Ocean Seaboard,395,51.11041667,-63.40004,U,,2017,http://en.wikipedia.org/wiki/List_of_electrical_generating_stations_in_Quebec,http://www.hydroquebec.com/romaine/pdf/ei_volume01.pdf,http://www.hydroquebec.com/publications/en/sd_action_plan/pdf/plan_action_dd.pdf
44,Romaine 4,North America,Canada,Natashquan,Atlantic Ocean Seaboard,245,51.35055583,-63.48388917,U,,2020,http://en.wikipedia.org/wiki/List_of_electrical_generating_stations_in_Quebec,http://www.hydroquebec.com/romaine/pdf/ei_volume01.pdf,http://www.hydroquebec.com/publications/en/sd_action_plan/pdf/plan_action_dd.pdf
45,Kokish Hydro Project,North America,Canada,Nechako,Pacific and Arctic Coast 2,45,50.45879517,-126.8120382,U,2012,2014,http://www.kokishriver.com/content/information_updates/construction_activity_update-34185.html,,
46,Pehonan,North America,Canada,Saskatchewan,Saskatchewan - Nelson,250,53.22291667,-104.693069,P,2016,,http://www.pehonanhydroelectric.com/content/information_centre/recent_news-3271.html,,
47,Amaila Falls S,South America,Guyana,Essequibo,"Northeast South America, South Atlantic Coast",165,5.38251883,-59.53414783,U,,2016,http://dams-info.org/en/dams/view/amailafalls (location) /,http://www.sitheglobal.com/projects/amaila.cfm,
48,Condor Cliff,South America,Argentina,Santa Cruz,"South Argentina, South Atlantic Coast",1140,-50.21458333,-70.77708333,P,,2017,p. petry coordinates /,Impsa.comhttp://www.impsa.com/es/descargas/hydro%20segunda%20toma/E%29%20CONDOR%20CLIFF%20Y%20LA%20BARRANCOSA.pdf,
49,La Barrancosa,South America,Argentina,Santa Cruz,"South Argentina, South Atlantic Coast",600,-50.18676017,-70.17842683,P,,2017,p. petry / http://www.impsa.com/es/descargas/hydro%20segunda%20toma/E%29%20CONDOR%20CLIFF%20Y%20LA%20BARRANCOSA.pdf,,
50,Alvarez Condarco (A Repotenciar),South America,Argentina,Rio Rapel,"South America, Colorado",42,-33.04791667,-68.98649825,P,,,http://www.mecon.gov.ar/,,
51,Aprov. Integ. Rio Negro - Cierre Allen,South America,Argentina,Negro,Negro,170,-39.03125,-67.855167,P,,,http://www.mecon.gov.ar/,,
52,Aprov. Integ. Rio Negro - Cierre Mainque,South America,Argentina,Negro,Negro,174.4,-39.09840533,-67.30673867,P,,,http://www.mecon.gov.ar/,,
53,Aprov. Integ. Rio Negro - Cierre Plottier,South America,Argentina,Limay,Negro,102,-38.98125,-68.22291667,P,,,http://www.mecon.gov.ar/,,
54,Aprov. Integ. Rio Negro - Cierre Roca,South America,Argentina,Negro,Negro,168,-39.11041667,-67.629948,P,,,http://www.mecon.gov.ar/,,
55,Aprov. Integ. Rio Negro - Cierre Senillosa,South America,Argentina,Limay,Negro,101,-39.0296045,-68.4296045,P,,,http://www.mecon.gov.ar/,,
56,Aprov. Integ. Rio Negro - Cierre Villa Regina,South America,Argentina,Negro,Negro,172,-39.16420183,-67.11496483,P,,,http://www.mecon.gov.ar/,,
57,Aprovechamiento Multiple Potrerillos,South America,Argentina,Rio Rapel,"South America, Colorado",27,-32.92884267,-69.21699067,P,,,http://www.mecon.gov.ar/,,
58,Arroyo Corto,South America,Argentina,Tercero,La Plata,5,-32.22083667,-64.56250333,P,,,http://www.mecon.gov.ar/,,
59,Cacheuta Nueva,South America,Argentina,Rio Rapel,"South America, Colorado",184.6,-33.01667,-69.11458333,P,,,http://www.mecon.gov.ar/,,
60,Cacique I,South America,Argentina,Rio Rapel,"South America, Colorado",2.64,-32.920304,-69.15625,P,,,http://www.mecon.gov.ar/,,
61,Canal Matriz - San Juan,South America,Argentina,San Juan,"South America, Colorado",1.8,-31.50625,-68.634832,P,,,http://www.mecon.gov.ar/,,
62,Central Del Lago,South America,Argentina,Bio-Bio,Negro,3,-39.25837167,-70.91253833,P,,,http://www.mecon.gov.ar/,,
63,Cerro Meson,South America,Argentina,Salado,La Plata,114,-34.48569576,-60.00208333,P,,,http://www.mecon.gov.ar/,,
64,Chihuido Ii,South America,Argentina,Neuquén,Negro,300,-38.58958167,-69.35625167,P,,,http://www.mecon.gov.ar/,,
65,Collon Cura,South America,Argentina,Limay,Negro,376,-40.29031064,-70.66458333,P,,,http://www.mecon.gov.ar/,,
66,Complejo Hidroel. Chilecito - Rio Agua Negra,South America,Argentina,San Juan,Salinas Grandes,1,-29.21312133,-67.69104533,P,,,http://www.mecon.gov.ar/,,
67,Complejo Hidroel. Chilecito - Rio Amarillo,South America,Argentina,San Juan,Salinas Grandes,3.1,-29.142866,-67.49791667,P,,,http://www.mecon.gov.ar/,,
68,Cuesta Del Viento,South America,Argentina,San Juan,"South America, Colorado",8.9,-30.20551767,-69.05281567,P,,,http://www.mecon.gov.ar/,,
69,El Baqueano,South America,Argentina,Colorado,"South America, Colorado",202.6,-34.56041667,-68.883419,P,,,http://www.mecon.gov.ar/,,
70,El Confin,South America,Argentina,Rio Rapel,"South America, Colorado",1.5,-32.920016,-69.15625,P,,,http://www.mecon.gov.ar/,,
71,El Dique,South America,Argentina,Rio Rapel,"South America, Colorado",4.5,-33.43541667,-69.50208333,P,,,http://www.mecon.gov.ar/,,
72,El Puesto,South America,Argentina,Rio Rapel,"South America, Colorado",1.74,-33.93541667,-69.20625,P,,,http://www.mecon.gov.ar/,,
73,El Sapo,South America,Argentina,Rio Rapel,"South America, Colorado",6,-33.70208333,-69.13456,P,,,http://www.mecon.gov.ar/,,
74,El Tambolar,South America,Argentina,San Juan,"South America, Colorado",70,-31.26250333,-69.12916333,P,,,http://www.mecon.gov.ar/,,
75,La Junta,South America,Argentina,Rio Rapel,"South America, Colorado",4.27,-33.23541667,-69.494362,P,,,http://www.mecon.gov.ar/,,
76,Lago Espejo,South America,Argentina,Limay,Negro,4,-40.60619965,-71.69796702,P,,,http://www.mecon.gov.ar/,,
77,Las Piedras,South America,Argentina,Rio Rapel,"South America, Colorado",1.8,-33.93541667,-69.22916667,P,,,http://www.mecon.gov.ar/,,
78,Las Tres Terrazas,South America,Argentina,Rio Rapel,"South America, Colorado",4.5,-33.43541667,-69.50208333,P,,,http://www.mecon.gov.ar/,,
79,Los Antiguos,South America,Argentina,Deseado,"South Chile, Pacific Coast",2.5,-46.667462,-71.59791667,P,,,http://www.mecon.gov.ar/,,
80,Los Blancos I,South America,Argentina,Rio Rapel,"South America, Colorado",324,-33.85208333,-69.45,P,,,http://www.mecon.gov.ar/,,
81,Los Blancos Ii,South America,Argentina,Rio Rapel,"South America, Colorado",158,-33.77382983,-69.26966317,P,,,http://www.mecon.gov.ar/,,
82,Manzano I,South America,Argentina,Rio Rapel,"South America, Colorado",2.25,-33.92001783,-69.33414883,P,,,http://www.mecon.gov.ar/,,
83,Michihuao,South America,Argentina,Limay,Negro,621,-39.81041667,-69.540024,P,,,http://www.mecon.gov.ar/,,
84,Nahueve,South America,Argentina,Neuquén,Negro,4,-37.187809,-70.68125,P,,,http://www.mecon.gov.ar/,,
85,Paraná Medio - Cierre Norte Los Vascos,South America,Argentina,Cuiaba,La Plata,3065.3,-29.445835,-59.579165,P,,,http://www.mecon.gov.ar/,,
86,Paraná Medio - Cierre Norte Pati,South America,Argentina,Cuiaba,La Plata,3120,-29.48958333,-59.55625,P,,,http://www.mecon.gov.ar/,,
87,Paraná Medio - Cierre Sur Chapeton,South America,Argentina,Cuiaba,La Plata,3000,-31.62291667,-60.36041667,P,,,http://www.mecon.gov.ar/,,
89,Punta Negra,South America,Argentina,San Juan,"South America, Colorado",62.2,-31.50625,-68.99791667,U,2015,,http://www.mecon.gov.ar/,,
90,Rio Anisacate,South America,Argentina,Tercero,Mar Chiquita,40,-31.71875,-64.41875,P,,,http://www.mecon.gov.ar/,,
91,Rio Carrenleufu - Cierre Frontera,South America,Argentina,Chubut,"South Chile, Pacific Coast",80,-43.55208333,-71.71667,P,,,http://www.mecon.gov.ar/,,
92,Rio Carrenleufu - Cierre Jaramillo,South America,Argentina,Chubut,"South Chile, Pacific Coast",24,-43.75208333,-71.22708333,P,,,http://www.mecon.gov.ar/,,
93,Rio Carrenleufu - Cierre La Caridad,South America,Argentina,Chubut,"South Chile, Pacific Coast",42,-43.71787597,-71.24045736,P,,,http://www.mecon.gov.ar/,,
94,Rio Carrenleufu - Cierre La Elena,South America,Argentina,Chubut,"South Chile, Pacific Coast",100,-43.70625,-71.29791667,P,,,http://www.mecon.gov.ar/,,
95,Rio Carrenleufu - Cierre Puesto Bustos,South America,Argentina,Chubut,"South Chile, Pacific Coast",115,-43.52708333,-71.667595,P,,,http://www.mecon.gov.ar/,,
96,Rio Chañarmuyo,South America,Argentina,Copiapó,Salinas Grandes,3.33,-29.00379983,-67.51286683,P,,,http://www.mecon.gov.ar/,,
97,Rio Frey,South America,Argentina,Chico,"South Chile, Pacific Coast",60,-42.90259983,-71.72656683,P,,,http://www.mecon.gov.ar/,,
98,Rio Grande- Cierre Bardas Blancas,South America,Argentina,Colorado,"South America, Colorado",120,-35.86250333,-69.82083667,P,,,http://www.mecon.gov.ar/,,
99,Rio Grande- Cierre La Estrechura,South America,Argentina,Colorado,"South America, Colorado",100,-35.32291667,-70.29375,P,,,http://www.mecon.gov.ar/,,
100,Rio Hielo,South America,Argentina,Chubut,"South Chile, Pacific Coast",100,-43.514291,-71.610709,P,,,http://www.mecon.gov.ar/,,
101,Rio La Leona,South America,Argentina,Santa Cruz,"South Argentina, South Atlantic Coast",240,-49.99917783,-72.09501117,P,,,http://www.mecon.gov.ar/,,
102,Rio Miranda,South America,Argentina,Copiapó,Salinas Grandes,1.82,-29.18036162,-67.64047172,P,,,http://www.mecon.gov.ar/,,
103,Rio Percey,South America,Argentina,Chubut,"South Chile, Pacific Coast",10,-43.31875,-71.47708333,P,,,http://www.mecon.gov.ar/,,
104,Rio Piray Guazu,South America,Argentina,Paraná,La Plata,69,-26.46875,-54.66875,P,,,http://www.mecon.gov.ar/,,
105,Rio Senguerr - Cierre Angostura,South America,Argentina,Chico,"South Argentina, South Atlantic Coast",18.2,-45.41250167,-69.90416833,P,,,http://www.mecon.gov.ar/,,
106,Rio Senguerr - Cierre La Salina,South America,Argentina,Chico,"South Argentina, South Atlantic Coast",200,-45.61875,-70.81667,P,,,http://www.mecon.gov.ar/,,
107,Rio Senguerr - Cierre Los Monos,South America,Argentina,Chico,"South Argentina, South Atlantic Coast",23.2,-46.00578133,-69.50161467,P,,,http://www.mecon.gov.ar/,,
108,Rio Senguerr - Cierre Pastos Blancos,South America,Argentina,Chico,"South Argentina, South Atlantic Coast",51.6,-45.36875,-70.8,P,,,http://www.mecon.gov.ar/,,
109,Rio Senguerr - Cierre Tamariscos,South America,Argentina,Chico,"South Argentina, South Atlantic Coast",12.4,-45.02707289,-70.09376044,P,,,http://www.mecon.gov.ar/,,
110,Rio Yaboty,South America,Argentina,Uruguay,La Plata,45,-27.14791667,-53.91667,P,,,http://www.mecon.gov.ar/,,
111,San Martin I - Neuquén,South America,Argentina,Limay,"South Chile, Pacific Coast",3,-40.19873517,-71.37209817,P,,,http://www.mecon.gov.ar/,,
112,Segunda Angostura,South America,Argentina,Limay,Negro,120,-40.94791667,-71.03958333,P,,,http://www.mecon.gov.ar/,,
113,Sistema Potrero Del Clavillo,South America,Argentina,Dulce,Mar Chiquita,52.7,-27.39791667,-65.96667,P,,,http://www.mecon.gov.ar/,,
114,Talhelum,South America,Argentina,Limay,Negro,240,-39.74999833,-70.93333167,P,,,http://www.mecon.gov.ar/,,
115,Valle De Uco,South America,Argentina,Rio Rapel,"South America, Colorado",158,-33.77537433,-69.27120767,P,,,http://www.mecon.gov.ar/,,
116,Zanja Del Tigre,South America,Argentina,Bermejo,La Plata,239.55,-23.170835,-64.195835,P,,,http://www.mecon.gov.ar/,,
117,Arenales,South America,Bolivia,Pilcomayo,La Plata,,-21.00208333,-64.59791667,P,,,http://www2.hidrocarburos.gob.bo/,,
118,Arrazayal,South America,Bolivia,Bermejo,La Plata,,-22.64431533,-64.43485133,P,,,http://www2.hidrocarburos.gob.bo/,,
119,Cambarã­,South America,Bolivia,Bermejo,La Plata,,-22.223744,-64.10625,P,,,http://www2.hidrocarburos.gob.bo/,,
120,Carrizal,South America,Bolivia,Pilcomayo,La Plata,,-20.966082,-65.121418,P,,,http://www2.hidrocarburos.gob.bo/,,
121,El Bala,South America,Bolivia,Beni,Amazon,,-14.547283,-67.49791667,P,,,http://www2.hidrocarburos.gob.bo/,,
122,El Pescado,South America,Bolivia,Pilcomayo,La Plata,,-21.14375,-64.359259,P,,,http://www2.hidrocarburos.gob.bo/,,
123,Esperanza,South America,Bolivia,Pilcomayo,La Plata,,-20.265568,-64.584432,P,,,http://www2.hidrocarburos.gob.bo/,,
124,Guajarã¡-Mirim,South America,Bolivia,Madeira,Amazon,,-10.166022,-65.30208333,P,,,http://www2.hidrocarburos.gob.bo/,,
125,Icla,South America,Bolivia,Pilcomayo,La Plata,,-19.426766,-64.85208333,P,,,http://www2.hidrocarburos.gob.bo/,,
126,Las Pavas,South America,Bolivia,Bermejo,La Plata,,-22.481008,-64.48125,P,,,http://www2.hidrocarburos.gob.bo/,,
127,Machigua,South America,Bolivia,Pilcomayo,La Plata,,-20.8569215,-64.1805785,P,,,http://www2.hidrocarburos.gob.bo/,,
128,San Josã©,South America,Bolivia,Pilcomayo,La Plata,,-19.81041667,-64.698273,P,,,http://www2.hidrocarburos.gob.bo/,,
129,Santa Elena,South America,Bolivia,Pilcomayo,La Plata,,-20.41727367,-64.55355967,P,,,http://www2.hidrocarburos.gob.bo/,,
130,Turuchipa,South America,Bolivia,Pilcomayo,La Plata,,-19.6381655,-64.7881655,P,,,http://www2.hidrocarburos.gob.bo/,,
131,Yuquirenda,South America,Bolivia,Pilcomayo,La Plata,,-21.19375,-63.7885,P,,,http://sigel.aneel.gov.br/sigel.html,,
132,Abranjo Ii,South America,Brazil,,"Uruguay - Brazil, South Atlantic Coast",1.75,-30.83180583,-52.59736083,P,,,http://sigel.aneel.gov.br/sigel.html,,
133,Abranjo I,South America,Brazil,,"Uruguay - Brazil, South Atlantic Coast",4.8,-30.79402767,-52.62680567,P,,,http://sigel.aneel.gov.br/sigel.html,,
134,Morrinhos,South America,Brazil,,"Uruguay - Brazil, South Atlantic Coast",2.25,-30.31875,-51.8644,P,,,http://sigel.aneel.gov.br/sigel.html,,
135,Rincão Ventura,South America,Brazil,Ibicuí,La Plata,4.5,-29.48125,-54.144167,P,,,http://sigel.aneel.gov.br/sigel.html,,
136,Rincão São Miguel,South America,Brazil,Ibicuí,La Plata,8.5,-29.453116,-54.090616,P,,2017,http://cdm.unfccc.int/Projects/DB/DNV-CUK1354514470.1/view,,
137,Cachoeira Cinco Veados,South America,Brazil,Ibicuí,La Plata,14.25,-29.418889,-54.05208333,P,,2017,http://cdm.unfccc.int/Projects/DB/DNV-CUK1354514470.1/view,,
138,Salto Do Guassupi,South America,Brazil,Ibicuí,La Plata,11,-29.4120835,-53.9995835,P,,2015,http://cdm.unfccc.int/Projects/DB/DNV-CUK1354514470.1/view,,
139,Laranjeiras,South America,Brazil,Uruguay,"Uruguay - Brazil, South Atlantic Coast",1.35,-29.38541667,-50.75,P,,,http://sigel.aneel.gov.br/sigel.html,,
140,Quebra Dentes,South America,Brazil,Ibicuí,La Plata,20,-29.36375,-54.01125,P,,,http://sigel.aneel.gov.br/sigel.html,,
141,Olaria,South America,Brazil,Uruguay,"Uruguay - Brazil, South Atlantic Coast",3.2,-29.16916683,-52.17249983,P,,,http://sigel.aneel.gov.br/sigel.html,,
142,Vale Do Leite,South America,Brazil,Uruguay,"Uruguay - Brazil, South Atlantic Coast",5.2,-29.143611,-52.18958333,P,,,http://sigel.aneel.gov.br/sigel.html,,
143,Vale Fundo,South America,Brazil,Uruguay,"Uruguay - Brazil, South Atlantic Coast",4.9,-29.12888917,-52.19194417,P,,,http://sigel.aneel.gov.br/sigel.html,,
144,Moinho Velho,South America,Brazil,Uruguay,"Uruguay - Brazil, South Atlantic Coast",3.6,-29.1025925,-52.2025925,P,,,http://sigel.aneel.gov.br/sigel.html,,
145,Rastro De Auto,South America,Brazil,Uruguay,"Uruguay - Brazil, South Atlantic Coast",7.02,-29.06291667,-52.21708333,U,,,http://sigel.aneel.gov.br/sigel.html,,
146,Do Bico,South America,Brazil,Uruguay,"Uruguay - Brazil, South Atlantic Coast",6.5,-29.03530533,-51.10636133,P,,,http://sigel.aneel.gov.br/sigel.html,,
147,São Jacó,South America,Brazil,Uruguay,"Uruguay - Brazil, South Atlantic Coast",1.2,-29.03541667,-51.067778,P,,,http://sigel.aneel.gov.br/sigel.html,,
148,Foz Do Jacutinga,South America,Brazil,Uruguay,"Uruguay - Brazil, South Atlantic Coast",4.9,-29.0309725,-52.2184725,P,,,http://sigel.aneel.gov.br/sigel.html,,
149,Cazuza Ferreira (Ampliação),South America,Brazil,Uruguay,"Uruguay - Brazil, South Atlantic Coast",9.1,-29.01875033,-50.71458367,P,,,http://sigel.aneel.gov.br/sigel.html,,
150,Grotão,South America,Brazil,Uruguay,"Uruguay - Brazil, South Atlantic Coast",5.2,-29.01875,-50.23541667,P,,,http://sigel.aneel.gov.br/sigel.html,,
151,Riachuello (Monte Bérico),South America,Brazil,Uruguay,"Uruguay - Brazil, South Atlantic Coast",8.7,-28.9993055,-51.1243055,P,,,http://sigel.aneel.gov.br/sigel.html,,
152,Santo Henrique (Santo Antônio),South America,Brazil,Uruguay,"Uruguay - Brazil, South Atlantic Coast",2.25,-28.97097217,-51.14986117,P,,,http://sigel.aneel.gov.br/sigel.html,,
153,Monte Cuco,South America,Brazil,Paraná,La Plata,30,-20.14791667,-51.90625,P,,,http://sigel.aneel.gov.br/sigel.html,,
154,Usina Do Chapéu,South America,Brazil,Uruguay,"Uruguay - Brazil, South Atlantic Coast",1.9,-28.913333,-50.27708333,P,,,http://sigel.aneel.gov.br/sigel.html,,
155,Autódromo,South America,Brazil,Uruguay,"Uruguay - Brazil, South Atlantic Coast",24,-28.82527767,-51.84194433,U,,,http://sigel.aneel.gov.br/sigel.html,,
156,Pulador,South America,Brazil,Uruguay,"Uruguay - Brazil, South Atlantic Coast",6.4,-28.80791667,-52.06208333,P,,,http://sigel.aneel.gov.br/sigel.html,,
157,Pião,South America,Brazil,Uruguay,"Uruguay - Brazil, South Atlantic Coast",7.2,-28.808333,-50.76875,P,,,http://sigel.aneel.gov.br/sigel.html,,
158,Quebrada Funda,South America,Brazil,Uruguay,"Uruguay - Brazil, South Atlantic Coast",16,-28.809357,-50.421857,P,,,http://sigel.aneel.gov.br/sigel.html,,
159,Serra Dos Cavalinhos I,South America,Brazil,Uruguay,"Uruguay - Brazil, South Atlantic Coast",18.5,-28.79375,-50.706099,P,,,http://sigel.aneel.gov.br/sigel.html,,
160,Pezzi,South America,Brazil,Uruguay,"Uruguay - Brazil, South Atlantic Coast",20,-28.79651667,-50.56181667,U,,,http://sigel.aneel.gov.br/sigel.html,,
161,Serra Dos Cavalinhos Ii,South America,Brazil,Uruguay,"Uruguay - Brazil, South Atlantic Coast",24,-28.79791667,-50.73958333,P,,,http://sigel.aneel.gov.br/sigel.html,,
162,Igrejinha,South America,Brazil,Ibicuí,La Plata,2.5,-28.769955,-53.967545,P,,,http://sigel.aneel.gov.br/sigel.html,,
163,Primavera Do Rio Turvo,South America,Brazil,Uruguay,"Uruguay - Brazil, South Atlantic Coast",30,-28.766667,-51.43125,P,,,http://sigel.aneel.gov.br/sigel.html,,
164,São Paulo,South America,Brazil,Uruguay,"Uruguay - Brazil, South Atlantic Coast",16,-28.78125,-51.84375,U,,,http://sigel.aneel.gov.br/sigel.html,,
165,Fazenda Grande,South America,Brazil,Ibicuí,La Plata,5,-28.6760945,-53.9739055,P,,,http://sigel.aneel.gov.br/sigel.html,,
166,Santo Antônio Do Jacuí,South America,Brazil,Ibicuí,"Uruguay - Brazil, South Atlantic Coast",5.2,-28.70625,-52.87291667,P,,,http://sigel.aneel.gov.br/sigel.html,,
167,Santa Carolina,South America,Brazil,Uruguay,"Uruguay - Brazil, South Atlantic Coast",10.5,-28.61458333,-51.40208333,P,,,http://sigel.aneel.gov.br/sigel.html,,
168,Saltinho,South America,Brazil,Uruguay,"Uruguay - Brazil, South Atlantic Coast",19.5,-28.61666683,-51.35000017,P,,,http://sigel.aneel.gov.br/sigel.html,,
169,Chimarrão,South America,Brazil,Uruguay,"Uruguay - Brazil, South Atlantic Coast",11,-28.6,-51.4,P,,,http://sigel.aneel.gov.br/sigel.html,,
170,Tio Hugo,South America,Brazil,Uruguay,"Uruguay - Brazil, South Atlantic Coast",8.1,-28.588611,-52.58125,P,,,http://sigel.aneel.gov.br/sigel.html,,
171,Touros Ii,South America,Brazil,Uruguay,La Plata,1.4,-28.577913,-50.35208333,P,,,http://sigel.aneel.gov.br/sigel.html,,
172,Jardim,South America,Brazil,Uruguay,"Uruguay - Brazil, South Atlantic Coast",9,-28.56041667,-51.40208333,P,,,http://sigel.aneel.gov.br/sigel.html,,
173,Morro Grande,South America,Brazil,Uruguay,"Uruguay - Brazil, South Atlantic Coast",9.8,-28.559431,-51.31041667,P,,,http://sigel.aneel.gov.br/sigel.html,,
174,Serraria,South America,Brazil,Ibicuí,La Plata,2.3,-28.548,-53.80208333,P,,,http://sigel.aneel.gov.br/sigel.html,,
175,Touros Iii,South America,Brazil,Uruguay,La Plata,2.1,-28.536324,-50.376176,P,,,http://sigel.aneel.gov.br/sigel.html,,
176,São Pedro,South America,Brazil,Uruguay,"Uruguay - Brazil, South Atlantic Coast",2.3,-28.51875,-51.37708333,P,,,http://sigel.aneel.gov.br/sigel.html,,
177,Tigre,South America,Brazil,Ibicuí,La Plata,2,-28.53541667,-53.86041667,P,,,http://sigel.aneel.gov.br/sigel.html,,
178,Touros Iv,South America,Brazil,Uruguay,La Plata,5.5,-28.52708333,-50.407641,P,,,http://sigel.aneel.gov.br/sigel.html,,
179,Entre Rios,South America,Brazil,Uruguay,"Uruguay - Brazil, South Atlantic Coast",1.8,-28.49999983,-51.36666683,P,,,http://sigel.aneel.gov.br/sigel.html,,
180,Touros V,South America,Brazil,Uruguay,La Plata,3.3,-28.501007,-50.423993,P,,,http://sigel.aneel.gov.br/sigel.html,,
181,Antas,South America,Brazil,Ibicuí,La Plata,3,-28.48671739,-53.94088405,P,,,http://sigel.aneel.gov.br/sigel.html,,
182,Lajeado Bonito,South America,Brazil,Uruguay,"Uruguay - Brazil, South Atlantic Coast",1.2,-28.46875,-51.36458333,P,,,http://sigel.aneel.gov.br/sigel.html,,
183,Santana 1,South America,Brazil,Uruguay,La Plata,3.3,-28.437,-50.71875,P,,,http://sigel.aneel.gov.br/sigel.html,,
184,Rincão,South America,Brazil,Uruguay,La Plata,5,-28.425278,-54.299722,P,,,http://sigel.aneel.gov.br/sigel.html,,
185,Pessegueiro,South America,Brazil,Uruguay,La Plata,1,-28.42175,-49.89075,P,,,http://sigel.aneel.gov.br/sigel.html,,
186,Passo Da Cruz,South America,Brazil,Uruguay,La Plata,6.8,-28.41041667,-54.034537,P,,,http://sigel.aneel.gov.br/sigel.html,,
187,Invernadinha,South America,Brazil,Uruguay,La Plata,2.25,-28.40551833,-49.91385167,U,,,http://sigel.aneel.gov.br/sigel.html,,
188,Boqueirão,South America,Brazil,Uruguay,"Uruguay - Brazil, South Atlantic Coast",2.7,-28.39375,-51.34791667,P,,,http://sigel.aneel.gov.br/sigel.html,,
189,Sede Ii,South America,Brazil,Uruguay,La Plata,7,-28.35208333,-53.890368,P,,,http://sigel.aneel.gov.br/sigel.html,,
190,Linha 11 Oeste,South America,Brazil,Uruguay,La Plata,13.6,-28.33671167,-54.02837833,P,,,http://sigel.aneel.gov.br/sigel.html,,
191,São Ludgero I,South America,Brazil,Uruguay,"Uruguay - Brazil, South Atlantic Coast",4.5,-28.32291667,-49.161944,P,,,http://sigel.aneel.gov.br/sigel.html,,
192,Santana 3 A,South America,Brazil,Uruguay,La Plata,18,-28.3244265,-50.7380735,P,,,http://sigel.aneel.gov.br/sigel.html,,
193,Despraiado,South America,Brazil,Uruguay,La Plata,2.7,-28.32291667,-50.863731,P,,,http://sigel.aneel.gov.br/sigel.html,,
194,São Mateus,South America,Brazil,Uruguay,La Plata,19,-28.31041667,-50.26041667,P,,,http://sigel.aneel.gov.br/sigel.html,,
195,Rs-155,South America,Brazil,Uruguay,La Plata,5.94,-28.31233167,-53.89600167,U,,,http://sigel.aneel.gov.br/sigel.html,,
196,Fonte Ijuí,South America,Brazil,Uruguay,La Plata,5.7,-28.31214967,-53.89618367,P,,,http://sigel.aneel.gov.br/sigel.html,,
197,Três Marias,South America,Brazil,Uruguay,La Plata,1.1,-28.295556,-50.85625,P,,,http://sigel.aneel.gov.br/sigel.html,,
198,Santo Cristo,South America,Brazil,Uruguay,La Plata,19.5,-28.29011667,-50.65571667,P,,,http://sigel.aneel.gov.br/sigel.html,,
199,Passo Do Buraco,South America,Brazil,Uruguay,La Plata,1.4,-28.28541667,-50.83837,P,,,http://sigel.aneel.gov.br/sigel.html,,
200,Penteado,South America,Brazil,Uruguay,La Plata,22.2,-28.28376833,-50.61710167,P,,,http://sigel.aneel.gov.br/sigel.html,,
201,Bela Vista,South America,Brazil,Uruguay,La Plata,3,-28.27387117,-50.83446217,P,,,http://sigel.aneel.gov.br/sigel.html,,
202,Rincão,South America,Brazil,Uruguay,La Plata,12,-28.25625,-50.57122,P,,,http://sigel.aneel.gov.br/sigel.html,,
203,Vassoura,South America,Brazil,Uruguay,La Plata,9,-28.246222,-50.81458333,P,,,http://sigel.aneel.gov.br/sigel.html,,
204,Palmeiras,South America,Brazil,Uruguay,La Plata,7,-28.24791667,-53.557867,P,,,http://sigel.aneel.gov.br/sigel.html,,
205,Antoninha,South America,Brazil,Uruguay,La Plata,13,-28.2336295,-50.2211295,P,,,http://sigel.aneel.gov.br/sigel.html,,
206,Estribo,South America,Brazil,Uruguay,La Plata,5.9,-28.2318295,-50.7931705,P,,,http://sigel.aneel.gov.br/sigel.html,,
207,Coxilha Rica,South America,Brazil,Uruguay,La Plata,18,-28.22126817,-50.53793483,P,,,http://sigel.aneel.gov.br/sigel.html,,
208,São José,South America,Brazil,Uruguay,"Uruguay - Brazil, South Atlantic Coast",2.75,-28.20430583,-49.17486083,P,,,http://sigel.aneel.gov.br/sigel.html,,
209,Boa Vista,South America,Brazil,Uruguay,La Plata,5,-28.19440583,-50.17226083,P,,,http://sigel.aneel.gov.br/sigel.html,,
210,Raposo,South America,Brazil,Uruguay,La Plata,6.8,-28.184167,-50.48541667,P,,,http://sigel.aneel.gov.br/sigel.html,,
211,Gamba,South America,Brazil,Uruguay,La Plata,10.8,-28.16875,-50.18541667,P,,,http://sigel.aneel.gov.br/sigel.html,,
212,Malacara,South America,Brazil,Uruguay,La Plata,9.2,-28.145,-50.11041667,P,,,http://sigel.aneel.gov.br/sigel.html,,
213,Rio Fortuna,South America,Brazil,Uruguay,"Uruguay - Brazil, South Atlantic Coast",6.85,-28.12291667,-49.1356,U,,,http://sigel.aneel.gov.br/sigel.html,,
214,Pinhalzinho,South America,Brazil,Uruguay,La Plata,9,-28.119861,-52.992639,P,,,http://sigel.aneel.gov.br/sigel.html,,
215,Capivari,South America,Brazil,Uruguay,"Uruguay - Brazil, South Atlantic Coast",12,-28.14252986,-48.96752986,U,,,http://sigel.aneel.gov.br/sigel.html,,
216,Painel,South America,Brazil,Uruguay,La Plata,8.6,-28.11458333,-50.08125,P,,,http://sigel.aneel.gov.br/sigel.html,,
217,Volta Grande,South America,Brazil,Uruguay,"Uruguay - Brazil, South Atlantic Coast",3.13,-28.08694,-48.93958333,P,,,http://sigel.aneel.gov.br/sigel.html,,
218,Linha São Paulo,South America,Brazil,Uruguay,La Plata,5,-28.076528,-53.001528,P,,,http://sigel.aneel.gov.br/sigel.html,,
219,Barra Do Rio Chapéu,South America,Brazil,Uruguay,"Uruguay - Brazil, South Atlantic Coast",15,-28.07708333,-49.150833,U,,,http://sigel.aneel.gov.br/sigel.html,,
220,Nova Fátima,South America,Brazil,Uruguay,"Uruguay - Brazil, South Atlantic Coast",4.1,-28.0411,-49.12708333,U,,,http://sigel.aneel.gov.br/sigel.html,,
221,Santa Rosa,South America,Brazil,Uruguay,"Uruguay - Brazil, South Atlantic Coast",6.5,-28.01222233,-49.12055567,U,,,http://sigel.aneel.gov.br/sigel.html,,
222,Varginha,South America,Brazil,Uruguay,"Uruguay - Brazil, South Atlantic Coast",2,-27.99308333,-49.11391667,P,,,http://sigel.aneel.gov.br/sigel.html,,
223,Salto Barroso,South America,Brazil,Uruguay,La Plata,11,-27.98541667,-53.04791667,P,,,http://sigel.aneel.gov.br/sigel.html,,
224,Santo Antônio,South America,Brazil,Uruguay,"Uruguay - Brazil, South Atlantic Coast",1.55,-27.97694467,-48.95611133,P,,,http://sigel.aneel.gov.br/sigel.html,,
225,São Bonifácio,South America,Brazil,Uruguay,"Uruguay - Brazil, South Atlantic Coast",1.91,-27.941944,-48.95208333,P,,,http://sigel.aneel.gov.br/sigel.html,,
226,Cabrito,South America,Brazil,Uruguay,La Plata,12,-27.88791,-53.05041,P,,,http://sigel.aneel.gov.br/sigel.html,,
227,Santo Cristo I,South America,Brazil,Uruguay,La Plata,1.55,-27.83680533,-54.55763867,P,,,http://sigel.aneel.gov.br/sigel.html,,
228,Barracão,South America,Brazil,Uruguay,La Plata,10.7,-27.80208333,-51.36458333,P,,,http://sigel.aneel.gov.br/sigel.html,,
229,A - Trincheira,South America,Brazil,Uruguay,La Plata,1.75,-27.781111,-54.37291667,P,,,http://sigel.aneel.gov.br/sigel.html,,
230,Pinheiro,South America,Brazil,Uruguay,La Plata,10,-27.77151667,-50.52568333,P,,,http://sigel.aneel.gov.br/sigel.html,,
231,Santo Cristo Ii,South America,Brazil,Uruguay,La Plata,2.5,-27.74916683,-54.63250017,P,,,http://sigel.aneel.gov.br/sigel.html,,
232,Itararé,South America,Brazil,Uruguay,La Plata,9,-27.72246667,-50.57336667,P,,,http://sigel.aneel.gov.br/sigel.html,,
233,João Borges,South America,Brazil,Uruguay,La Plata,19,-27.71795,-50.65705,U,,,http://sigel.aneel.gov.br/sigel.html,,
234,Antônio Munhoz Bonilha,South America,Brazil,Uruguay,"Uruguay - Brazil, South Atlantic Coast",4.75,-27.71675,-48.82925,P,,,http://sigel.aneel.gov.br/sigel.html,,
235,João Eloi,South America,Brazil,Uruguay,"Uruguay - Brazil, South Atlantic Coast",1.61,-27.71558333,-48.83858333,P,,,http://sigel.aneel.gov.br/sigel.html,,
236,Santo Amaro,South America,Brazil,Uruguay,"Uruguay - Brazil, South Atlantic Coast",4.05,-27.70597183,-48.79819483,P,,,http://sigel.aneel.gov.br/sigel.html,,
237,Forquilha I,South America,Brazil,Uruguay,La Plata,7.5,-27.658333,-51.74791667,P,,,http://sigel.aneel.gov.br/sigel.html,,
238,Sacramento,South America,Brazil,Uruguay,"Uruguay - Brazil, South Atlantic Coast",1.22,-27.64352767,-48.86480567,P,,,http://sigel.aneel.gov.br/sigel.html,,
239,Portão,South America,Brazil,Uruguay,La Plata,16.42,-27.63361117,-50.77527783,P,,,http://sigel.aneel.gov.br/sigel.html,,
240,Forquilha Ii,South America,Brazil,Uruguay,La Plata,6.5,-27.630278,-51.73958333,P,,,http://sigel.aneel.gov.br/sigel.html,,
241,Canto Do Schulwz,South America,Brazil,Uruguay,"Uruguay - Brazil, South Atlantic Coast",1.05,-27.6268055,-48.8856945,P,,,http://sigel.aneel.gov.br/sigel.html,,
242,Palheiros,South America,Brazil,Uruguay,La Plata,1.84,-27.597775,-49.739725,P,,,http://sigel.aneel.gov.br/sigel.html,,
243,Guarita B,South America,Brazil,Uruguay,La Plata,4.21,-27.5788,-53.58125,P,,,http://sigel.aneel.gov.br/sigel.html,,
244,Alto Garcia,South America,Brazil,Uruguay,"Uruguay - Brazil, South Atlantic Coast",2,-27.5844485,-49.0094485,P,,,http://sigel.aneel.gov.br/sigel.html,,
245,Ibicuí I,South America,Brazil,Uruguay,La Plata,10,-27.58081167,-51.22247833,P,,,http://sigel.aneel.gov.br/sigel.html,,
246,Pito,South America,Brazil,Uruguay,La Plata,3.7,-27.58125,-51.35625,P,,,http://sigel.aneel.gov.br/sigel.html,,
247,Taquaruçu,South America,Brazil,Uruguay,La Plata,11,-27.57708333,-53.12708333,P,,,http://sigel.aneel.gov.br/sigel.html,,
248,Bico De Pato,South America,Brazil,Uruguay,La Plata,4.6,-27.55691667,-53.57358333,P,,,http://sigel.aneel.gov.br/sigel.html,,
249,Toca Do Tigre,South America,Brazil,Uruguay,La Plata,12,-27.54375,-53.79791667,P,,,http://sigel.aneel.gov.br/sigel.html,,
250,Linha Aparecida,South America,Brazil,Uruguay,La Plata,24,-27.53541667,-53.126944,P,,,http://sigel.aneel.gov.br/sigel.html,,
251,Santa Maria,South America,Brazil,Uruguay,"Uruguay - Brazil, South Atlantic Coast",2,-27.52791667,-48.86791667,P,,,http://sigel.aneel.gov.br/sigel.html,,
252,Ibicuí Ii,South America,Brazil,Uruguay,La Plata,2.5,-27.50750017,-51.18833317,P,,,http://sigel.aneel.gov.br/sigel.html,,
253,Linha Jacinto,South America,Brazil,Uruguay,La Plata,17,-27.50041667,-53.15791667,P,,,http://sigel.aneel.gov.br/sigel.html,,
254,Alto Farias,South America,Brazil,Uruguay,"Uruguay - Brazil, South Atlantic Coast",1.2,-27.47291667,-48.831389,P,,,http://sigel.aneel.gov.br/sigel.html,,
255,Turvo 14,South America,Brazil,Uruguay,La Plata,5.3,-27.44549833,-53.84133167,P,,,http://sigel.aneel.gov.br/sigel.html,,
256,Tambaú,South America,Brazil,Uruguay,La Plata,8.81,-27.44430567,-53.56402767,U,,,http://sigel.aneel.gov.br/sigel.html,,
257,Pira,South America,Brazil,Uruguay,La Plata,16,-27.42515,-51.78735,P,,,http://sigel.aneel.gov.br/sigel.html,,
258,Turvo 13,South America,Brazil,Uruguay,La Plata,7.4,-27.41458333,-53.80625,P,,,http://sigel.aneel.gov.br/sigel.html,,
259,Pinheiral,South America,Brazil,Uruguay,"Uruguay - Brazil, South Atlantic Coast",3.19,-27.39791667,-49.042,P,,,http://sigel.aneel.gov.br/sigel.html,,
260,Estância,South America,Brazil,Uruguay,"Uruguay - Brazil, South Atlantic Coast",4.29,-27.39266667,-49.01566667,P,,,http://sigel.aneel.gov.br/sigel.html,,
261,Canta Galo,South America,Brazil,Uruguay,"Uruguay - Brazil, South Atlantic Coast",2.73,-27.39375,-48.997,P,,,http://sigel.aneel.gov.br/sigel.html,,
262,São Sebastião,South America,Brazil,Uruguay,"Uruguay - Brazil, South Atlantic Coast",9.9,-27.39791667,-49.032222,P,,,http://sigel.aneel.gov.br/sigel.html,,
263,Camboatá,South America,Brazil,Uruguay,La Plata,2,-27.334722,-51.35625,U,,,http://sigel.aneel.gov.br/sigel.html,,
264,São Valentim,South America,Brazil,Uruguay,"Uruguay - Brazil, South Atlantic Coast",2.45,-27.32291667,-49.02708333,P,,,http://sigel.aneel.gov.br/sigel.html,,
265,São Sebastião,South America,Brazil,Uruguay,"Uruguay - Brazil, South Atlantic Coast",3.7,-27.32291667,-49.04375,U,,,http://sigel.aneel.gov.br/sigel.html,,
266,Spessato,South America,Brazil,Uruguay,La Plata,2.38,-27.318056,-51.47708333,P,,,http://sigel.aneel.gov.br/sigel.html,,
267,Nova Trento,South America,Brazil,Uruguay,"Uruguay - Brazil, South Atlantic Coast",1.55,-27.31458333,-49.0725,U,,,http://sigel.aneel.gov.br/sigel.html,,
268,Aguti,South America,Brazil,Uruguay,"Uruguay - Brazil, South Atlantic Coast",3.89,-27.31986117,-49.09902783,U,,,http://sigel.aneel.gov.br/sigel.html,,
269,Turvo 18,South America,Brazil,Uruguay,La Plata,6.4,-27.312,-53.93541667,P,,,http://sigel.aneel.gov.br/sigel.html,,
270,Santo Expedito,South America,Brazil,Uruguay,La Plata,2.25,-27.31041667,-51.50625,P,,,http://sigel.aneel.gov.br/sigel.html,,
271,Barra Do Leão,South America,Brazil,Uruguay,La Plata,3.57,-27.3004165,-51.5504165,P,,,http://sigel.aneel.gov.br/sigel.html,,
272,Rio Dos Índios,South America,Brazil,Uruguay,La Plata,8,-27.2591665,-52.7533335,U,,,http://sigel.aneel.gov.br/sigel.html,,
273,Salto Góes,South America,Brazil,Uruguay,La Plata,15,-27.10083317,-51.28250017,P,,,http://sigel.aneel.gov.br/sigel.html,,
274,Salto Do Soque,South America,Brazil,Uruguay,La Plata,4.4,-27.09033333,-51.25133333,P,,,http://sigel.aneel.gov.br/sigel.html,,
275,Apiúna,South America,Brazil,Uruguay,"Uruguay - Brazil, South Atlantic Coast",24.6,-27.07652767,-49.44319433,P,,,http://sigel.aneel.gov.br/sigel.html,,
276,Xavantina,South America,Brazil,Uruguay,La Plata,6.08,-26.99375,-52.39791667,P,,,http://sigel.aneel.gov.br/sigel.html,,
277,Helena Kuhlemann,South America,Brazil,Uruguay,"Uruguay - Brazil, South Atlantic Coast",1.44,-26.99,-49.67708333,U,,,http://sigel.aneel.gov.br/sigel.html,,
278,Karl Kuhlemann,South America,Brazil,Uruguay,"Uruguay - Brazil, South Atlantic Coast",1.75,-26.99,-49.67708333,P,,,http://sigel.aneel.gov.br/sigel.html,,
279,Ascurra,South America,Brazil,Uruguay,"Uruguay - Brazil, South Atlantic Coast",11.5,-27.14791667,-49.89791667,P,,,http://sigel.aneel.gov.br/sigel.html,,
280,Nova Erechim,South America,Brazil,Uruguay,La Plata,18.5,-26.87915867,-52.87917467,P,,,http://sigel.aneel.gov.br/sigel.html,,
281,Estação Indaiál,South America,Brazil,Uruguay,"Uruguay - Brazil, South Atlantic Coast",27,-26.885853,-49.201647,P,,,http://sigel.aneel.gov.br/sigel.html,,
282,Zimlich,South America,Brazil,Uruguay,"Uruguay - Brazil, South Atlantic Coast",13.3,-26.88391496,-49.22141496,P,,,http://sigel.aneel.gov.br/sigel.html,,
283,Encano,South America,Brazil,Uruguay,"Uruguay - Brazil, South Atlantic Coast",12,-26.88138917,-49.18555583,P,,,http://sigel.aneel.gov.br/sigel.html,,
284,Belmonte,South America,Brazil,Uruguay,La Plata,3.6,-26.83541667,-53.66458333,U,,,http://sigel.aneel.gov.br/sigel.html,,
285,Bandeirante,South America,Brazil,Uruguay,La Plata,3,-26.7976385,-53.6648615,U,,,http://sigel.aneel.gov.br/sigel.html,,
286,Alto Benedito Novo Ii,South America,Brazil,Uruguay,"Uruguay - Brazil, South Atlantic Coast",5.7,-26.76542136,-49.4387453,P,,,http://sigel.aneel.gov.br/sigel.html,,
287,Guarani,South America,Brazil,Uruguay,La Plata,27.53,-26.77986133,-52.49930533,P,,,http://sigel.aneel.gov.br/sigel.html,,
288,Ponte Serrada,South America,Brazil,Uruguay,La Plata,2.9,-26.7691665,-52.0308335,P,,,http://sigel.aneel.gov.br/sigel.html,,
289,Marema,South America,Brazil,Uruguay,La Plata,9.4,-26.76875,-52.61041667,P,,,http://sigel.aneel.gov.br/sigel.html,,
290,Santa Maria Baixo,South America,Brazil,Uruguay,"Uruguay - Brazil, South Atlantic Coast",2.75,-26.78125,-49.37291667,P,,,http://sigel.aneel.gov.br/sigel.html,,
291,Kaingang,South America,Brazil,Uruguay,La Plata,8.5,-26.76166667,-52.49083333,P,,,http://sigel.aneel.gov.br/sigel.html,,
292,Salto Donner Ii,South America,Brazil,Ribeira,"Uruguay - Brazil, South Atlantic Coast",2.9,-26.73312917,-49.47520417,P,,,http://sigel.aneel.gov.br/sigel.html,,
293,Foz Do Chapecozinho,South America,Brazil,Uruguay,La Plata,26.6,-26.80625,-52.68125,P,,,http://sigel.aneel.gov.br/sigel.html,,
294,Santa Maria,South America,Brazil,Ribeira,"Uruguay - Brazil, South Atlantic Coast",4,-26.77708333,-49.38541667,P,,,http://sigel.aneel.gov.br/sigel.html,,
295,Ilha,South America,Brazil,Uruguay,"Uruguay - Brazil, South Atlantic Coast",2.15,-26.78125,-49.4,P,,,http://sigel.aneel.gov.br/sigel.html,,
296,São Jorge,South America,Brazil,Uruguay,La Plata,8.7,-26.70983333,-53.39316667,P,,,http://sigel.aneel.gov.br/sigel.html,,
297,Passos Maia,South America,Brazil,Uruguay,La Plata,22.2,-26.7086,-51.91041667,U,,,http://sigel.aneel.gov.br/sigel.html,,
298,Alto Pomerano,South America,Brazil,Ribeira,"Uruguay - Brazil, South Atlantic Coast",2.5,-26.70208333,-49.287,P,,,http://sigel.aneel.gov.br/sigel.html,,
299,Goiabeiras,South America,Brazil,Uruguay,La Plata,8.4,-26.695139,-51.995139,P,,,http://sigel.aneel.gov.br/sigel.html,,
300,Foz Do Setembro,South America,Brazil,Ribeira,"Uruguay - Brazil, South Atlantic Coast",1.65,-26.69441667,-49.30141667,P,,,http://sigel.aneel.gov.br/sigel.html,,
301,Amparo,South America,Brazil,Uruguay,La Plata,6.3,-26.692778,-51.85208333,P,,,http://sigel.aneel.gov.br/sigel.html,,
302,Rondinha,South America,Brazil,Uruguay,La Plata,9.6,-26.6825,-52.04375,P,,,http://sigel.aneel.gov.br/sigel.html,,
303,Das Pedras,South America,Brazil,Uruguay,La Plata,5.6,-26.68055017,-51.79028317,P,,,http://sigel.aneel.gov.br/sigel.html,,
304,Santa Rosa,South America,Brazil,Uruguay,La Plata,8.1,-26.67291667,-52.095,P,,,http://sigel.aneel.gov.br/sigel.html,,
305,Arrozeira Meyer,South America,Brazil,Ribeira,"Uruguay - Brazil, South Atlantic Coast",20,-26.66041667,-49.3325,P,,,http://sigel.aneel.gov.br/sigel.html,,
306,Vermelho,South America,Brazil,Uruguay,La Plata,2.8,-26.5966665,-52.1091665,P,,,http://sigel.aneel.gov.br/sigel.html,,
307,Pacheco,South America,Brazil,Uruguay,La Plata,1.6,-26.5849345,-52.1849345,P,,,http://sigel.aneel.gov.br/sigel.html,,
308,Garça Branca,South America,Brazil,Uruguay,La Plata,5.66,-26.58165,-53.43085,P,,,http://sigel.aneel.gov.br/sigel.html,,
309,Prainha,South America,Brazil,Uruguay,La Plata,13,-26.56930533,-52.30263867,P,,,http://sigel.aneel.gov.br/sigel.html,,
310,Abelardo Luz,South America,Brazil,Uruguay,La Plata,29,-26.55873333,-52.34206667,P,,,http://sigel.aneel.gov.br/sigel.html,,
311,Mangueira De Pedra,South America,Brazil,Uruguay,La Plata,12.06,-26.55030657,-52.3288601,P,,,http://sigel.aneel.gov.br/sigel.html,,
312,Tamanduá,South America,Brazil,Ivaí,La Plata,16,-26.49861083,-50.75694417,P,,,http://sigel.aneel.gov.br/sigel.html,,
313,Baitaca,South America,Brazil,Ivaí,La Plata,2.7,-26.44375,-50.85208333,U,,,http://sigel.aneel.gov.br/sigel.html,,
314,Cabeça De Tigre,South America,Brazil,Ribeira,"Uruguay - Brazil, South Atlantic Coast",1.32,-26.44375,-49.379167,P,,,http://sigel.aneel.gov.br/sigel.html,,
315,Ribeirão Dos Correias,South America,Brazil,Ribeira,"Uruguay - Brazil, South Atlantic Coast",2.65,-26.43708333,-49.37041667,P,,,http://sigel.aneel.gov.br/sigel.html,,
316,Bruaca,South America,Brazil,Ribeira,"Uruguay - Brazil, South Atlantic Coast",15,-26.42291667,-49.389,P,,,http://sigel.aneel.gov.br/sigel.html,,
317,Escola Rio Natal,South America,Brazil,Ribeira,"Uruguay - Brazil, South Atlantic Coast",2.35,-26.38051683,-49.2778165,P,,,http://sigel.aneel.gov.br/sigel.html,,
318,Rio Das Pacas,South America,Brazil,Ribeira,"Uruguay - Brazil, South Atlantic Coast",1.2,-26.36941667,-49.30141667,P,,,http://sigel.aneel.gov.br/sigel.html,,
319,Rabo Do Macaco,South America,Brazil,Ribeira,"Uruguay - Brazil, South Atlantic Coast",3.2,-26.35208333,-49.318,P,,,http://sigel.aneel.gov.br/sigel.html,,
320,Rancho Grande,South America,Brazil,Uruguay,La Plata,17.7,-26.3194,-52.16458333,P,,,http://sigel.aneel.gov.br/sigel.html,,
321,Alto Chopim,South America,Brazil,Uruguay,La Plata,20.34,-26.31458333,-52.08541667,P,,,http://sigel.aneel.gov.br/sigel.html,,
322,Santa Lídia,South America,Brazil,Ivaí,La Plata,13.2,-26.30141667,-51.26941667,P,,,http://sigel.aneel.gov.br/sigel.html,,
323,Faxinal Dos Santos,South America,Brazil,Ivaí,La Plata,14.4,-26.28958317,-51.59374983,P,,,http://sigel.aneel.gov.br/sigel.html,,
324,Paiol Grande,South America,Brazil,Ivaí,La Plata,12,-26.26666683,-51.65000017,P,,,http://sigel.aneel.gov.br/sigel.html,,
325,Salto Do Jardim Montante,South America,Brazil,Ivaí,La Plata,16.2,-26.24375,-51.26875,P,,,http://sigel.aneel.gov.br/sigel.html,,
326,Vista Alegre,South America,Brazil,Ivaí,La Plata,12.7,-26.24319433,-51.77652767,P,,,http://sigel.aneel.gov.br/sigel.html,,
327,Catanduva,South America,Brazil,Ivaí,La Plata,17.6,-26.20208333,-51.81041667,P,,,http://sigel.aneel.gov.br/sigel.html,,
328,Engenho Velho,South America,Brazil,Ivaí,La Plata,10.1,-26.15,-51.86875,P,,,http://sigel.aneel.gov.br/sigel.html,,
329,Foz Do Estrela,South America,Brazil,Ivaí,La Plata,29.8,-26.09791667,-51.87291667,P,,,http://sigel.aneel.gov.br/sigel.html,,
330,Km 34 (Vitorino Iii),South America,Brazil,Uruguay,La Plata,3.3,-26.073129,-52.826871,P,,,http://sigel.aneel.gov.br/sigel.html,,
331,Nova Riqueza,South America,Brazil,Uruguay,La Plata,2.6,-26.064028,-53.535972,P,,,http://sigel.aneel.gov.br/sigel.html,,
332,Butiá,South America,Brazil,Ivaí,La Plata,3.75,-26.059444,-52.08958333,P,,,http://sigel.aneel.gov.br/sigel.html,,
333,Vila Galupo,South America,Brazil,Uruguay,La Plata,5.1,-26.05208333,-52.925,P,,,http://sigel.aneel.gov.br/sigel.html,,
334,Tigre,South America,Brazil,Ivaí,La Plata,9,-26.03541667,-51.18541667,P,,,http://sigel.aneel.gov.br/sigel.html,,
335,Km 22 (Vitorino Ii),South America,Brazil,Uruguay,La Plata,2.3,-26.048476,-52.80208333,P,,,http://sigel.aneel.gov.br/sigel.html,,
336,Linha Sarandi,South America,Brazil,Uruguay,La Plata,2.7,-26.04375,-53.531944,P,,,http://sigel.aneel.gov.br/sigel.html,,
337,Jacaré,South America,Brazil,Uruguay,La Plata,5,-26.03958333,-52.93125,P,,,http://sigel.aneel.gov.br/sigel.html,,
338,Bom Retiro,South America,Brazil,Ivaí,La Plata,3.5,-26.0331945,-52.0831945,P,,,http://sigel.aneel.gov.br/sigel.html,,
339,Salto Da Barra,South America,Brazil,Ivaí,La Plata,6,-26.02291667,-52.09375,P,,,http://sigel.aneel.gov.br/sigel.html,,
340,Alto Paraíso,South America,Brazil,Paraná,La Plata,2.75,-25.9969445,-53.5405555,P,,,http://sigel.aneel.gov.br/sigel.html,,
341,Canhadão,South America,Brazil,Ivaí,La Plata,10,-25.978889,-52.21875,P,,,http://sigel.aneel.gov.br/sigel.html,,
342,Covó,South America,Brazil,Ivaí,La Plata,5,-25.97208367,-52.15125033,P,,,http://sigel.aneel.gov.br/sigel.html,,
343,Amperé,South America,Brazil,Paraná,La Plata,8,-25.93958333,-53.566,P,,,http://sigel.aneel.gov.br/sigel.html,,
344,Foz,South America,Brazil,Uruguay,La Plata,6,-25.92291683,-52.86875017,P,,,http://sigel.aneel.gov.br/sigel.html,,
345,Coxilha Bonita,South America,Brazil,Paraná,La Plata,5.3,-25.8967151,-53.57564382,P,,,http://sigel.aneel.gov.br/sigel.html,,
346,Pinhalzinho,South America,Brazil,Paranápanema,La Plata,10.9,-22.88,-51.33541667,P,,,http://sigel.aneel.gov.br/sigel.html,,
347,Vasco Da Gama,South America,Brazil,Paraná,La Plata,3.5,-25.83611117,-53.57777783,P,,,http://sigel.aneel.gov.br/sigel.html,,
348,Tamanduá,South America,Brazil,Ribeira,"Uruguay - Brazil, South Atlantic Coast",4.3,-25.83097183,-48.96069483,P,,,http://sigel.aneel.gov.br/sigel.html,,
349,Foz Do Turvo,South America,Brazil,Ivaí,La Plata,8.8,-25.8283,-51.3092,P,,,http://sigel.aneel.gov.br/sigel.html,,
350,Castelhano,South America,Brazil,Ribeira,"Uruguay - Brazil, South Atlantic Coast",3.2,-25.81875,-48.898333,P,,,http://sigel.aneel.gov.br/sigel.html,,
351,Itararé,South America,Brazil,Ribeira,"Uruguay - Brazil, South Atlantic Coast",4.5,-25.81875,-48.934444,P,,,http://sigel.aneel.gov.br/sigel.html,,
352,Quati,South America,Brazil,Ribeira,"Uruguay - Brazil, South Atlantic Coast",15,-25.81041667,-48.876667,P,,,http://sigel.aneel.gov.br/sigel.html,,
353,Bela Vista,South America,Brazil,Uruguay,La Plata,29,-25.80666902,-52.90583098,P,,,http://sigel.aneel.gov.br/sigel.html,,
354,Jaquatirica,South America,Brazil,Ribeira,"Uruguay - Brazil, South Atlantic Coast",13.8,-25.80000017,-48.83333317,P,,,http://sigel.aneel.gov.br/sigel.html,,
355,Burro Branco,South America,Brazil,Ivaí,La Plata,10,-25.803472,-51.253472,P,,,http://sigel.aneel.gov.br/sigel.html,,
356,Guaratuba,South America,Brazil,Ribeira,"Uruguay - Brazil, South Atlantic Coast",9.2,-25.77972217,-48.86611117,P,,,http://sigel.aneel.gov.br/sigel.html,,
357,Linha Capanema,South America,Brazil,Paraná,La Plata,4.5,-25.77249983,-53.60666683,P,,,http://sigel.aneel.gov.br/sigel.html,,
358,Onça Pintada,South America,Brazil,Ribeira,"Uruguay - Brazil, South Atlantic Coast",2.2,-25.76041667,-48.878333,P,,,http://sigel.aneel.gov.br/sigel.html,,
359,Arraial,South America,Brazil,Ribeira,"Uruguay - Brazil, South Atlantic Coast",5.4,-25.74791667,-48.926111,P,,,http://sigel.aneel.gov.br/sigel.html,,
360,Palmito,South America,Brazil,Ribeira,"Uruguay - Brazil, South Atlantic Coast",6,-25.7308335,-48.9441665,P,,,http://sigel.aneel.gov.br/sigel.html,,
361,Matão,South America,Brazil,Ivaí,La Plata,5.5,-25.72375,-51.22375,P,,,http://sigel.aneel.gov.br/sigel.html,,
362,São Jerônimo,South America,Brazil,Ivaí,La Plata,15,-25.66597217,-51.47013883,P,,,http://sigel.aneel.gov.br/sigel.html,,
363,Volta Grande,South America,Brazil,Ivaí,La Plata,3.7,-25.65333317,-51.59250017,P,,,http://sigel.aneel.gov.br/sigel.html,,
364,Pinhal Ralo,South America,Brazil,Ivaí,La Plata,5.7,-25.59791667,-51.75,P,,,http://sigel.aneel.gov.br/sigel.html,,
365,Lúcia Cherobim,South America,Brazil,Ivaí,La Plata,25.5,-25.51875,-50.833333,P,,,http://sigel.aneel.gov.br/sigel.html,,
366,Taguá,South America,Brazil,Ivaí,La Plata,6.7,-25.51458333,-51.77708333,P,,,http://sigel.aneel.gov.br/sigel.html,,
367,Cavernoso Ii,South America,Brazil,Ivaí,La Plata,19,-25.49456667,-52.22626667,U,,,http://sigel.aneel.gov.br/sigel.html,,
368,Cavernoso Iii,South America,Brazil,Ivaí,La Plata,8.2,-25.47708333,-52.19375,P,,,http://sigel.aneel.gov.br/sigel.html,,
369,Esperança,South America,Brazil,Ivaí,La Plata,3.2,-25.466667,-51.70625,P,,,http://sigel.aneel.gov.br/sigel.html,,
370,Três Capões Novos,South America,Brazil,Ivaí,La Plata,9.2,-25.4635,-51.6615,P,,,http://sigel.aneel.gov.br/sigel.html,,
371,Santa Paula,South America,Brazil,Ivaí,La Plata,3.1,-25.44375,-51.460278,P,,,http://sigel.aneel.gov.br/sigel.html,,
372,Km 19,South America,Brazil,Ivaí,La Plata,7.6,-25.13125,-50.93958333,P,,,http://sigel.aneel.gov.br/sigel.html,,
373,Km 14,South America,Brazil,Ivaí,La Plata,4.5,-25.09791683,-50.93124983,P,,,http://sigel.aneel.gov.br/sigel.html,,
374,São João,South America,Brazil,Ivaí,La Plata,21,-25.083333,-51.00208333,P,,,http://sigel.aneel.gov.br/sigel.html,,
375,Km 10,South America,Brazil,Ivaí,La Plata,2.8,-25.07291667,-50.944444,P,,,http://sigel.aneel.gov.br/sigel.html,,
376,Pardinho I,South America,Brazil,Ribeira,"Uruguay - Brazil, South Atlantic Coast",7.03,-25.01875,-48.58958333,P,,,http://sigel.aneel.gov.br/sigel.html,,
377,A (Eixo I /Caratuva),South America,Brazil,Ribeira,"Uruguay - Brazil, South Atlantic Coast",10,-24.97541667,-49.59208333,P,,,http://sigel.aneel.gov.br/sigel.html,,
378,Usina B (Eixo Iii),South America,Brazil,Ribeira,"Uruguay - Brazil, South Atlantic Coast",6.2,-24.96402817,-49.58069483,P,,,http://sigel.aneel.gov.br/sigel.html,,
379,Paredinha,South America,Brazil,Ivaí,La Plata,4.2,-24.92763917,-51.41930583,P,,,http://sigel.aneel.gov.br/sigel.html,,
380,C (Eixo Ix/Água Branca),South America,Brazil,Ribeira,"Uruguay - Brazil, South Atlantic Coast",22,-24.92486067,-49.54152733,P,,,http://sigel.aneel.gov.br/sigel.html,,
381,Confluência,South America,Brazil,Ivaí,La Plata,20,-24.9178,-51.4072,P,,,http://sigel.aneel.gov.br/sigel.html,,
382,Marrecas,South America,Brazil,Ivaí,La Plata,4.7,-24.864722,-51.36875,P,,,http://sigel.aneel.gov.br/sigel.html,,
383,Tesouro,South America,Brazil,Paraná,La Plata,2.2,-24.84375,-53.270278,P,,,http://sigel.aneel.gov.br/sigel.html,,
384,Salto Da Banana,South America,Brazil,Ivaí,La Plata,2,-24.78541667,-51.56041667,P,,,http://sigel.aneel.gov.br/sigel.html,,
385,Santa Rita,South America,Brazil,Ivaí,La Plata,4.45,-24.77508333,-51.42908333,P,,,http://sigel.aneel.gov.br/sigel.html,,
386,Cantu 1,South America,Brazil,Ivaí,La Plata,15,-24.76486083,-52.58569417,P,,,http://sigel.aneel.gov.br/sigel.html,,
387,Ribeirão Bonito (Ex-C),South America,Brazil,Ribeira,"Uruguay - Brazil, South Atlantic Coast",6.1,-24.75805583,-49.33361083,P,,,http://sigel.aneel.gov.br/sigel.html,,
388,Nova Esperança,South America,Brazil,Paraná,La Plata,4.5,-24.75222217,-53.14388883,P,,,http://sigel.aneel.gov.br/sigel.html,,
389,Cantu 2,South America,Brazil,Ivaí,La Plata,18,-24.74653333,-52.46736667,P,,,http://sigel.aneel.gov.br/sigel.html,,
390,Das Almas,South America,Brazil,Ribeira,"Uruguay - Brazil, South Atlantic Coast",6.3,-24.73958333,-49.38125,P,,,http://sigel.aneel.gov.br/sigel.html,,
391,Castro,South America,Brazil,Ribeira,La Plata,4.2,-24.73847217,-50.11763883,P,,,http://sigel.aneel.gov.br/sigel.html,,
392,Cinco Cantos,South America,Brazil,Paraná,La Plata,6.3,-24.7375,-54.01458333,P,,,http://sigel.aneel.gov.br/sigel.html,,
393,Cantu 3,South America,Brazil,Ivaí,La Plata,7,-24.73541667,-52.378056,P,,,http://sigel.aneel.gov.br/sigel.html,,
394,Cantu 4,South America,Brazil,Ivaí,La Plata,7,-24.73125,-52.29791667,P,,,http://sigel.aneel.gov.br/sigel.html,,
395,Tuneiras Ii,South America,Brazil,Ivaí,La Plata,2.5,-24.71875,-51.53125,P,,,http://sigel.aneel.gov.br/sigel.html,,
396,Pulo,South America,Brazil,Ribeira,La Plata,7.3,-24.7175,-50.13958333,P,,,http://sigel.aneel.gov.br/sigel.html,,
397,São Jorge I,South America,Brazil,Ivaí,La Plata,2.5,-24.710585,-51.523085,P,,,http://sigel.aneel.gov.br/sigel.html,,
398,Lajeado,South America,Brazil,Paraná,La Plata,4.6,-24.708889,-53.14375,P,,,http://sigel.aneel.gov.br/sigel.html,,
399,Itaoca,South America,Brazil,Ribeira,"Uruguay - Brazil, South Atlantic Coast",30,-24.69375,-48.81875,P,,,http://sigel.aneel.gov.br/sigel.html,,
400,Itaguaçú,South America,Brazil,Ivaí,La Plata,9,-24.6933,-51.51875,U,,,http://sigel.aneel.gov.br/sigel.html,,
401,Fazenda Da Onça,South America,Brazil,Paraná,La Plata,4.1,-24.686944,-53.12291667,P,,,http://sigel.aneel.gov.br/sigel.html,,
402,Fazenda Do Salto,South America,Brazil,Paraná,La Plata,8,-24.63541667,-53.093056,P,,,http://sigel.aneel.gov.br/sigel.html,,
403,Guartelá,South America,Brazil,Ribeira,La Plata,4.4,-24.52027783,-50.29638883,P,,,http://sigel.aneel.gov.br/sigel.html,,
404,Iapó,South America,Brazil,Ribeira,La Plata,18,-24.51069467,-50.31013867,P,,,http://sigel.aneel.gov.br/sigel.html,,
405,Catas Altas Iii,South America,Brazil,Ribeira,"Uruguay - Brazil, South Atlantic Coast",2.5,-24.483333,-49.11458333,P,,,http://sigel.aneel.gov.br/sigel.html,,
406,Fortaleza,South America,Brazil,Ivaí,La Plata,9.85,-24.4844445,-50.3719445,P,,,http://sigel.aneel.gov.br/sigel.html,,
407,Pioneiros,South America,Brazil,Ribeira,La Plata,3.3,-24.45458317,-50.33374983,P,,,http://sigel.aneel.gov.br/sigel.html,,
408,Lajeado,South America,Brazil,Ribeira,La Plata,1.25,-24.44069417,-50.30513917,P,,,http://sigel.aneel.gov.br/sigel.html,,
409,Rincão Da Ponte,South America,Brazil,Ribeira,La Plata,4.5,-24.43958333,-50.285,P,,,http://sigel.aneel.gov.br/sigel.html,,
410,Praia Das Vacas,South America,Brazil,Ribeira,La Plata,1.65,-24.4298615,-50.1923615,P,,,http://sigel.aneel.gov.br/sigel.html,,
411,Torre De Pedra,South America,Brazil,Ribeira,La Plata,2.7,-24.42708333,-50.228611,P,,,http://sigel.aneel.gov.br/sigel.html,,
412,Jataí,South America,Brazil,Paraná,La Plata,3.7,-24.42291667,-54.053056,P,,,http://sigel.aneel.gov.br/sigel.html,,
413,Moinho,South America,Brazil,Paraná,La Plata,3.7,-24.422295,-54.027705,P,,,http://sigel.aneel.gov.br/sigel.html,,
414,Serra Das Furnas,South America,Brazil,Ribeira,La Plata,5.8,-24.22291667,-49.955,P,,,http://sigel.aneel.gov.br/sigel.html,,
415,Água Bonita,South America,Brazil,Ribeira,La Plata,4.2,-24.180972,-49.943472,P,,,http://sigel.aneel.gov.br/sigel.html,,
416,Água Limpa Multifase,South America,Brazil,Paraná,La Plata,23,-24.123889,-53.32291667,P,,,http://sigel.aneel.gov.br/sigel.html,,
417,Saltinho,South America,Brazil,Ivaí,La Plata,4.5,-24.03125,-52.268333,P,,,http://sigel.aneel.gov.br/sigel.html,,
418,Água Tranquila,South America,Brazil,Ivaí,La Plata,4.2,-23.93541667,-53.081389,P,,,http://sigel.aneel.gov.br/sigel.html,,
419,Peabiru,South America,Brazil,Ivaí,La Plata,4.3,-23.91666683,-52.24999983,P,,,http://sigel.aneel.gov.br/sigel.html,,
420,Sete Quedas I,South America,Brazil,Jejui Guazu,La Plata,10,-23.87291667,-55.00208333,P,,,http://sigel.aneel.gov.br/sigel.html,,
421,Foz Da Anta,South America,Brazil,Paranápanema,La Plata,12,-23.8540275,-49.9584725,P,,,http://sigel.aneel.gov.br/sigel.html,,
422,Eng° Beltrão,South America,Brazil,Ivaí,La Plata,5.2,-23.84824983,-52.24408317,P,,,http://sigel.aneel.gov.br/sigel.html,,
423,Da Barra,South America,Brazil,Ivaí,La Plata,8.6,-23.72416633,-52.13000033,P,,,http://sigel.aneel.gov.br/sigel.html,,
424,Camburu,South America,Brazil,Paraiba,"Uruguay - Brazil, South Atlantic Coast",30,-23.66041667,-45.5428,P,,,http://sigel.aneel.gov.br/sigel.html,,
425,Santa Helena,South America,Brazil,Velhas,Sao Francisco,4,-17.75625,-44.473055,P,,,http://sigel.aneel.gov.br/sigel.html,,
426,Rio Dos Índios,South America,Brazil,Ivaí,La Plata,8.3,-23.4786115,-52.6161115,P,,,http://sigel.aneel.gov.br/sigel.html,,
427,Guaraú,South America,Brazil,Tietê,La Plata,5.8,-23.33125,-46.68958333,P,,,http://sigel.aneel.gov.br/sigel.html,,
428,Edgard Souza (Repotenciação),South America,Brazil,Tietê,La Plata,11,-23.4536845,-46.9088155,P,,,http://sigel.aneel.gov.br/sigel.html,,
429,Nova Fátima,South America,Brazil,Paranápanema,La Plata,3.92,-23.432778,-50.43541667,P,,,http://sigel.aneel.gov.br/sigel.html,,
430,Laranjinha,South America,Brazil,Paranápanema,La Plata,3.24,-23.41375,-50.45125,P,,,http://sigel.aneel.gov.br/sigel.html,,
431,Bom Progresso,South America,Brazil,Ivaí,La Plata,1.05,-23.39883333,-51.64283333,P,,,http://sigel.aneel.gov.br/sigel.html,,
432,Pirapora,South America,Brazil,Tietê,La Plata,25.02,-23.38541667,-46.983333,P,,,http://sigel.aneel.gov.br/sigel.html,,
433,Paranáguá,South America,Brazil,Ivaí,La Plata,1.1,-23.37708333,-51.70208333,P,,,http://sigel.aneel.gov.br/sigel.html,,
434,Piraí I,South America,Brazil,Tietê,La Plata,23,-23.36971367,-47.09888033,P,,,http://sigel.aneel.gov.br/sigel.html,,
435,Guaxatuba,South America,Brazil,Tietê,La Plata,12.2,-23.337,-47.16875,P,,,http://sigel.aneel.gov.br/sigel.html,,
436,Bonanza,South America,Brazil,Paranápanema,La Plata,9.9,-23.3151782,-50.48958333,P,,,http://sigel.aneel.gov.br/sigel.html,,
437,Maringá,South America,Brazil,Ivaí,La Plata,1.56,-23.30208333,-51.893031,P,,,http://sigel.aneel.gov.br/sigel.html,,
438,Pedra Azul,South America,Brazil,Tietê,La Plata,30,-23.28541667,-47.22,P,,,http://sigel.aneel.gov.br/sigel.html,,
439,Cascata,South America,Brazil,Tietê,La Plata,3.9,-23.27500033,-46.50833367,P,,,http://sigel.aneel.gov.br/sigel.html,,
440,Torrão De Ouro,South America,Brazil,Paranápanema,La Plata,8,-23.23849794,-50.47291667,P,,,http://sigel.aneel.gov.br/sigel.html,,
441,Jurumirim (Salgueiro),South America,Brazil,Tietê,La Plata,27,-23.21930583,-47.28486083,P,,,http://sigel.aneel.gov.br/sigel.html,,
442,Porto Feliz,South America,Brazil,Tietê,La Plata,16.6,-23.17291667,-47.49791667,P,,,http://sigel.aneel.gov.br/sigel.html,,
443,São João,South America,Brazil,Tietê,La Plata,9.6,-23.11458333,-47.99375,P,,,http://sigel.aneel.gov.br/sigel.html,,
444,Monte Serrat,South America,Brazil,Tietê,La Plata,1.2,-23.139,-47.089,P,,,http://sigel.aneel.gov.br/sigel.html,,
445,Quilombo I,South America,Brazil,Tietê,La Plata,2.5,-23.13441667,-47.11141667,P,,,http://sigel.aneel.gov.br/sigel.html,,
446,Santa Mariana,South America,Brazil,Paranápanema,La Plata,6.7,-23.0948615,-50.4573615,P,,,http://sigel.aneel.gov.br/sigel.html,,
447,Tietê,South America,Brazil,Tietê,La Plata,12.8,-23.08541667,-47.67708333,P,,,http://sigel.aneel.gov.br/sigel.html,,
448,Salto Bandeirantes,South America,Brazil,Paranápanema,La Plata,4.2,-22.98554347,-51.82278986,P,,,http://sigel.aneel.gov.br/sigel.html,,
449,Santana,South America,Brazil,Paranápanema,La Plata,12.7,-22.96875,-49.7894,P,,,http://sigel.aneel.gov.br/sigel.html,,
450,Salto Grande,South America,Brazil,Paranápanema,La Plata,5.2,-22.96904433,-52.03512233,P,,,http://sigel.aneel.gov.br/sigel.html,,
451,Estrelinha,South America,Brazil,Paranápanema,La Plata,2.8,-22.96267967,-48.78315367,P,,,http://sigel.aneel.gov.br/sigel.html,,
452,Figueira Branca,South America,Brazil,Paranápanema,La Plata,10.8,-22.90652467,-49.46430867,P,,,http://sigel.aneel.gov.br/sigel.html,,
453,Paraitinga,South America,Brazil,Paraiba,"Uruguay - Brazil, South Atlantic Coast",7,-22.93125,-44.98541667,P,,,http://sigel.aneel.gov.br/sigel.html,,
454,Niágara,South America,Brazil,Paranápanema,La Plata,11.9,-22.88541667,-49.38541667,P,,,http://sigel.aneel.gov.br/sigel.html,,
455,Ponte Branca,South America,Brazil,Paranápanema,La Plata,10.5,-22.87430867,-49.21597533,P,,,http://sigel.aneel.gov.br/sigel.html,,
456,Foz Dos Bandeirantes,South America,Brazil,Paranápanema,La Plata,4.7,-22.874381,-52.06875,P,,,http://sigel.aneel.gov.br/sigel.html,,
457,Água Da Onça,South America,Brazil,Paranápanema,La Plata,5.1,-22.84791667,-49.122879,P,,,http://sigel.aneel.gov.br/sigel.html,,
458,Extrema,South America,Brazil,Paraiba,La Plata,2.39,-22.84513883,-46.26597217,P,,,http://sigel.aneel.gov.br/sigel.html,,
459,São Francisco,South America,Brazil,Paranápanema,La Plata,7,-22.84375,-49.15663,P,,,http://sigel.aneel.gov.br/sigel.html,,
460,Do Tombo,South America,Brazil,Paraiba,La Plata,13.73,-22.832361,-46.130139,P,,,http://sigel.aneel.gov.br/sigel.html,,
461,Itapeva,South America,Brazil,Paraiba,La Plata,3.06,-22.83111117,-46.22722217,P,,,http://sigel.aneel.gov.br/sigel.html,,
462,Camanducaia,South America,Brazil,Paraiba,La Plata,3.62,-22.82458333,-46.18291667,P,,,http://sigel.aneel.gov.br/sigel.html,,
463,Quilombo,South America,Brazil,Paraiba,La Plata,3.32,-22.81875,-46.160556,P,,,http://sigel.aneel.gov.br/sigel.html,,
464,Japonesa,South America,Brazil,Paranápanema,La Plata,8.4,-22.7801921,-52.08958333,P,,,http://sigel.aneel.gov.br/sigel.html,,
465,Bom Jardim,South America,Brazil,Paraiba,La Plata,1.78,-22.78125,-46.015833,P,,,http://sigel.aneel.gov.br/sigel.html,,
466,Fazenda Santana,South America,Brazil,Paraiba,"Uruguay - Brazil, South Atlantic Coast",9.6,-22.7780555,-44.2155555,P,,,http://sigel.aneel.gov.br/sigel.html,,
467,Juncal,South America,Brazil,Paraiba,La Plata,1.55,-22.76458333,-45.970833,P,,,http://sigel.aneel.gov.br/sigel.html,,
468,Lídice,South America,Brazil,Paraiba,"Uruguay - Brazil, South Atlantic Coast",3.5,-22.80125017,-44.24291683,P,,,http://sigel.aneel.gov.br/sigel.html,,
469,Córrego Fundo,South America,Brazil,Paranápanema,La Plata,10,-22.70458333,-52.04958333,P,,,http://sigel.aneel.gov.br/sigel.html,,
470,Itaguajé,South America,Brazil,Paranápanema,La Plata,5,-22.61666633,-52.00000033,P,,,http://sigel.aneel.gov.br/sigel.html,,
471,Chalé,South America,Brazil,Paraiba,"Uruguay - Brazil, South Atlantic Coast",18.96,-22.56458333,-44.913333,P,,,http://sigel.aneel.gov.br/sigel.html,,
472,Lavrinhas,South America,Brazil,Paraiba,"Uruguay - Brazil, South Atlantic Coast",30,-22.56875,-44.86458333,U,,,http://sigel.aneel.gov.br/sigel.html,,
473,Rio Manso,South America,Brazil,Paraiba,La Plata,2.53,-22.37291667,-45.366667,P,,,http://sigel.aneel.gov.br/sigel.html,,
474,Saltinho,South America,Brazil,Pardo,La Plata,4.5,-22.32910342,-46.82291667,P,,,http://sigel.aneel.gov.br/sigel.html,,
475,Eleutério (Rio Euletério),South America,Brazil,Pardo,La Plata,1.5,-22.28958333,-46.77291667,P,,,http://sigel.aneel.gov.br/sigel.html,,
476,Secretário,South America,Brazil,Paraiba,"Uruguay - Brazil, South Atlantic Coast",3.7,-22.29999983,-43.18333317,P,,,http://sigel.aneel.gov.br/sigel.html,,
477,Posse,South America,Brazil,Paraiba,"Uruguay - Brazil, South Atlantic Coast",15.8,-22.28541667,-43.1,P,,,http://sigel.aneel.gov.br/sigel.html,,
478,Eleutério,South America,Brazil,Pardo,La Plata,5.25,-22.28541667,-46.766667,P,,,http://sigel.aneel.gov.br/sigel.html,,
479,Nova Pinhal,South America,Brazil,Pardo,La Plata,2.75,-22.27963734,-46.76041667,P,,,http://sigel.aneel.gov.br/sigel.html,,
480,Rolador,South America,Brazil,Pardo,La Plata,3.3,-22.26875,-46.65,P,,,http://sigel.aneel.gov.br/sigel.html,,
481,Divisa,South America,Brazil,Pardo,La Plata,3.25,-22.26458333,-46.73125,P,,,http://sigel.aneel.gov.br/sigel.html,,
482,Cachoeira Da Fumaça,South America,Brazil,Grande,"Uruguay - Brazil, South Atlantic Coast",18,-22.25208333,-44.26041667,P,,,http://sigel.aneel.gov.br/sigel.html,,
483,Providência,South America,Brazil,Paraiba,"Uruguay - Brazil, South Atlantic Coast",5,-22.26458333,-42.9,P,,,http://sigel.aneel.gov.br/sigel.html,,
484,Coura (Ex Dos Bragas),South America,Brazil,Paraiba,La Plata,1.01,-22.23541667,-44.844444,P,,,http://sigel.aneel.gov.br/sigel.html,,
485,Monte Alegre,South America,Brazil,Paraiba,"Uruguay - Brazil, South Atlantic Coast",18.6,-22.23121667,-43.11461667,P,,,http://sigel.aneel.gov.br/sigel.html,,
486,São Sebastião,South America,Brazil,Paraiba,"Uruguay - Brazil, South Atlantic Coast",17.2,-22.21461667,-43.13121667,P,,,http://sigel.aneel.gov.br/sigel.html,,
487,Novo Xavier,South America,Brazil,Paraiba,"Uruguay - Brazil, South Atlantic Coast",3,-22.19375,-42.55,P,,,http://sigel.aneel.gov.br/sigel.html,,
488,Poço Fundo,South America,Brazil,Paraiba,"Uruguay - Brazil, South Atlantic Coast",14,-22.186667,-42.88958333,P,,,http://sigel.aneel.gov.br/sigel.html,,
489,Cristina,South America,Brazil,Paraiba,La Plata,3.5,-22.16041667,-45.27708333,U,,,http://sigel.aneel.gov.br/sigel.html,,
490,Santo Antônio,South America,Brazil,Paraiba,"Uruguay - Brazil, South Atlantic Coast",8,-22.14027817,-42.34444483,U,,,http://sigel.aneel.gov.br/sigel.html,,
491,Conde D'Eu,South America,Brazil,Paraiba,"Uruguay - Brazil, South Atlantic Coast",9.6,-22.15208333,-42.66458333,P,,,http://sigel.aneel.gov.br/sigel.html,,
492,Batatal,South America,Brazil,Paraiba,"Uruguay - Brazil, South Atlantic Coast",3.3,-22.08958317,-42.65625017,P,,,http://sigel.aneel.gov.br/sigel.html,,
493,Santa Rosa I,South America,Brazil,Paraiba,"Uruguay - Brazil, South Atlantic Coast",17.3,-22.06527,-43.50625,P,,,http://sigel.aneel.gov.br/sigel.html,,
494,Sôssego,South America,Brazil,Paraiba,"Uruguay - Brazil, South Atlantic Coast",9,-22.04375,-42.25,P,,,http://sigel.aneel.gov.br/sigel.html,,
495,Rezende,South America,Brazil,Paraiba,"Uruguay - Brazil, South Atlantic Coast",2.4,-22.04291667,-43.76541667,P,,,http://sigel.aneel.gov.br/sigel.html,,
496,Alça,South America,Brazil,Paraiba,"Uruguay - Brazil, South Atlantic Coast",1.3,-22.03902783,-43.74013883,P,,,http://sigel.aneel.gov.br/sigel.html,,
497,Engenho Novo,South America,Brazil,Tietê,La Plata,3.2,-22.0340275,-47.9909725,P,,,http://sigel.aneel.gov.br/sigel.html,,
498,São Geraldo,South America,Brazil,Pardo,La Plata,2.4,-22.034167,-46.74375,P,,,http://sigel.aneel.gov.br/sigel.html,,
499,Bolsa,South America,Brazil,Paraiba,"Uruguay - Brazil, South Atlantic Coast",4,-22.03125,-43.74791667,P,,,http://sigel.aneel.gov.br/sigel.html,,
500,Bonança,South America,Brazil,Paraiba,"Uruguay - Brazil, South Atlantic Coast",5.5,-22.02268333,-42.14351667,P,,,http://sigel.aneel.gov.br/sigel.html,,
501,Aiuruoca,South America,Brazil,Grande,La Plata,16,-22.0146,-44.6021,P,,,http://sigel.aneel.gov.br/sigel.html,,
502,Mato Limpo,South America,Brazil,Grande,"Uruguay - Brazil, South Atlantic Coast",8,-22.00208333,-43.85625,P,,,http://sigel.aneel.gov.br/sigel.html,,
503,Cabuí,South America,Brazil,Paraiba,"Uruguay - Brazil, South Atlantic Coast",18,-22.00000017,-43.33333317,P,,,http://sigel.aneel.gov.br/sigel.html,,
504,Jambo,South America,Brazil,Paraiba,"Uruguay - Brazil, South Atlantic Coast",17.28,-21.98541667,-42.11458333,P,,,http://sigel.aneel.gov.br/sigel.html,,
505,Monte Verde,South America,Brazil,Paraiba,"Uruguay - Brazil, South Atlantic Coast",4.6,-21.95208333,-43.74375,P,,,http://sigel.aneel.gov.br/sigel.html,,
506,Santa Inês,South America,Brazil,Pardo,La Plata,1.58,-21.9539,-46.80625,P,,,http://sigel.aneel.gov.br/sigel.html,,
507,São José,South America,Brazil,Pardo,La Plata,4,-21.93819483,-46.81597183,U,,,http://sigel.aneel.gov.br/sigel.html,,
508,Retirão,South America,Brazil,Pardo,La Plata,4,-21.91875,-46.926389,P,,,http://sigel.aneel.gov.br/sigel.html,,
509,Nossa Senhora Das Graças,South America,Brazil,Pardo,La Plata,2.85,-21.91591667,-46.92008333,P,,,http://sigel.aneel.gov.br/sigel.html,,
510,Monte Verde,South America,Brazil,Paraiba,"Uruguay - Brazil, South Atlantic Coast",3.8,-21.91875,-43.529167,P,,,http://sigel.aneel.gov.br/sigel.html,,
511,Santa Bárbara,South America,Brazil,Paraiba,"Uruguay - Brazil, South Atlantic Coast",4.6,-21.916667,-43.566667,P,,,http://sigel.aneel.gov.br/sigel.html,,
512,Clayton Ferreira (Ex-Rapadura),South America,Brazil,Pardo,La Plata,4,-21.88958333,-46.25,P,,,http://sigel.aneel.gov.br/sigel.html,,
513,Água Fria,South America,Brazil,Grande,"Uruguay - Brazil, South Atlantic Coast",3,-21.90208333,-43.962778,P,,,http://sigel.aneel.gov.br/sigel.html,,
514,Vista Alegre,South America,Brazil,Grande,"Uruguay - Brazil, South Atlantic Coast",3.5,-21.88541667,-43.91041667,P,,,http://sigel.aneel.gov.br/sigel.html,,
515,Saudade,South America,Brazil,Paraiba,"Uruguay - Brazil, South Atlantic Coast",9.9,-21.9,-43.07291667,P,,,http://sigel.aneel.gov.br/sigel.html,,
516,Serrinha,South America,Brazil,Paraiba,"Uruguay - Brazil, South Atlantic Coast",5.2,-21.879444,-43.53958333,P,,,http://sigel.aneel.gov.br/sigel.html,,
517,Cotegipe,South America,Brazil,Paraiba,"Uruguay - Brazil, South Atlantic Coast",22.6,-21.87402733,-43.41986067,P,,,http://sigel.aneel.gov.br/sigel.html,,
518,Boa Vista,South America,Brazil,Paraiba,"Uruguay - Brazil, South Atlantic Coast",11.9,-21.860417,-42.022917,P,,,http://sigel.aneel.gov.br/sigel.html,,
519,Aventureiro,South America,Brazil,Paraiba,"Uruguay - Brazil, South Atlantic Coast",3,-21.84291683,-42.66124983,P,,,http://sigel.aneel.gov.br/sigel.html,,
520,Pouso Alegre,South America,Brazil,Paraiba,"Uruguay - Brazil, South Atlantic Coast",4.6,-21.80625,-42.23125,P,,,http://sigel.aneel.gov.br/sigel.html,,
521,Foz Do Angu,South America,Brazil,Paraiba,"Uruguay - Brazil, South Atlantic Coast",6,-21.79458333,-42.50291667,P,,,http://sigel.aneel.gov.br/sigel.html,,
522,Pimentel I,South America,Brazil,Paraiba,"Uruguay - Brazil, South Atlantic Coast",7.4,-21.79375,-41.96041667,P,,,http://sigel.aneel.gov.br/sigel.html,,
523,Boa Vista,South America,Brazil,Paraiba,"Uruguay - Brazil, South Atlantic Coast",2,-21.6666665,-42.7333335,P,,,http://sigel.aneel.gov.br/sigel.html,,
524,Engº Barroso,South America,Brazil,Grande,La Plata,4.2,-21.64858333,-44.14441667,P,,,http://sigel.aneel.gov.br/sigel.html,,
525,Aperibé,South America,Brazil,Paraiba,"Uruguay - Brazil, South Atlantic Coast",7.2,-21.63013867,-42.08430533,P,,,http://sigel.aneel.gov.br/sigel.html,,
526,Engº Magela,South America,Brazil,Grande,La Plata,5.2,-21.62111117,-44.16222217,P,,,http://sigel.aneel.gov.br/sigel.html,,
527,Varginha Ii,South America,Brazil,Grande,La Plata,4.83,-21.59197715,-45.40802285,P,,,http://sigel.aneel.gov.br/sigel.html,,
528,Ilha Grande,South America,Brazil,Grande,La Plata,5.2,-21.60694433,-45.42777767,P,,,http://sigel.aneel.gov.br/sigel.html,,
529,Malta,South America,Brazil,Paraiba,"Uruguay - Brazil, South Atlantic Coast",26.4,-21.59791667,-41.775278,P,,,http://sigel.aneel.gov.br/sigel.html,,
530,Alto Rio Grande (Ex-Capivari),South America,Brazil,Grande,La Plata,27.9,-21.59375,-44.150556,P,,,http://sigel.aneel.gov.br/sigel.html,,
531,Carrapatos,South America,Brazil,Pardo,La Plata,21.6,-21.56875017,-46.70208317,P,,,http://sigel.aneel.gov.br/sigel.html,,
532,Baltazar,South America,Brazil,Paraiba,"Uruguay - Brazil, South Atlantic Coast",17.6,-21.57291667,-42.14375,P,,,http://sigel.aneel.gov.br/sigel.html,,
533,Boa Vista I,South America,Brazil,Grande,La Plata,9,-21.54375,-45.51875,P,,,http://sigel.aneel.gov.br/sigel.html,,
534,Mandembe,South America,Brazil,Grande,La Plata,2.1,-21.56041667,-44.87708333,P,,,http://sigel.aneel.gov.br/sigel.html,,
535,São José,South America,Brazil,Pardo,La Plata,19,-21.54791667,-46.86341,P,,,http://sigel.aneel.gov.br/sigel.html,,
536,Cachoeira Alegre,South America,Brazil,Paraiba,"Uruguay - Brazil, South Atlantic Coast",11.6,-21.50208333,-42.21875,P,,,http://sigel.aneel.gov.br/sigel.html,,
537,Luminárias (Ex-Cachoeira Da Fumaça),South America,Brazil,Grande,La Plata,3.2,-21.49375,-44.90208333,P,,,http://sigel.aneel.gov.br/sigel.html,,
538,Paraoquena,South America,Brazil,Paraiba,"Uruguay - Brazil, South Atlantic Coast",13.7,-21.49375,-42.25810077,P,,,http://sigel.aneel.gov.br/sigel.html,,
539,Estiva,South America,Brazil,Paraiba,"Uruguay - Brazil, South Atlantic Coast",8,-21.48541667,-42.283333,P,,,http://sigel.aneel.gov.br/sigel.html,,
540,Laje,South America,Brazil,Paraiba,"Uruguay - Brazil, South Atlantic Coast",17.8,-21.47416667,-43.05916667,P,,,http://sigel.aneel.gov.br/sigel.html,,
541,Bela Vista,South America,Brazil,Paraiba,"Uruguay - Brazil, South Atlantic Coast",10,-21.46458333,-42.333333,P,,,http://sigel.aneel.gov.br/sigel.html,,
542,Conceição Do Formoso,South America,Brazil,Doce,"Uruguay - Brazil, South Atlantic Coast",8,-21.41041667,-43.39791667,P,,,http://sigel.aneel.gov.br/sigel.html,,
543,Italva,South America,Brazil,Paraiba,"Uruguay - Brazil, South Atlantic Coast",8.8,-21.38541667,-41.698611,P,,,http://sigel.aneel.gov.br/sigel.html,,
544,Couro Do Cervo,South America,Brazil,Grande,La Plata,2,-21.345556,-45.17291667,P,,,http://sigel.aneel.gov.br/sigel.html,,
545,São Joaquim,South America,Brazil,Paraiba,"Uruguay - Brazil, South Atlantic Coast",11,-21.32201393,-41.74048607,P,,,http://sigel.aneel.gov.br/sigel.html,,
546,Zé Tunin (Barra Dos Carrapatos),South America,Brazil,Doce,"Uruguay - Brazil, South Atlantic Coast",8,-21.31458333,-42.945,P,,,http://sigel.aneel.gov.br/sigel.html,,
547,Paraíso,South America,Brazil,Paraiba,"Uruguay - Brazil, South Atlantic Coast",7.2,-21.29972217,-41.75861117,P,,,http://sigel.aneel.gov.br/sigel.html,,
548,Aré,South America,Brazil,Paraiba,"Uruguay - Brazil, South Atlantic Coast",13,-21.24791667,-41.79776868,P,,,http://sigel.aneel.gov.br/sigel.html,,
549,Itaperuna,South America,Brazil,Paraiba,"Uruguay - Brazil, South Atlantic Coast",8.4,-21.23541667,-41.833333,P,,,http://sigel.aneel.gov.br/sigel.html,,
550,Bom Jesus,South America,Brazil,Paraiba,"Uruguay - Brazil, South Atlantic Coast",5,-21.12208333,-41.70541667,P,,,http://sigel.aneel.gov.br/sigel.html,,
551,Ibituruna,South America,Brazil,Grande,La Plata,30,-21.11346667,-44.76763333,P,,,http://sigel.aneel.gov.br/sigel.html,,
552,Pirapetinga,South America,Brazil,Grande,La Plata,30,-21.11233333,-44.78316667,P,,,http://sigel.aneel.gov.br/sigel.html,,
553,Rubens Rangel (Repotenciação),South America,Brazil,Paraiba,"Uruguay - Brazil, South Atlantic Coast",1.02,-21.08730577,-41.2293609,P,,,http://sigel.aneel.gov.br/sigel.html,,
554,Mangaravite (Repotenciação),South America,Brazil,Paraiba,"Uruguay - Brazil, South Atlantic Coast",2.99,-21.09125017,-41.70458317,P,,,http://sigel.aneel.gov.br/sigel.html,,
555,Nova Franca Amaral,South America,Brazil,Paraiba,"Uruguay - Brazil, South Atlantic Coast",30,-21.06875,-41.72291667,P,,,http://sigel.aneel.gov.br/sigel.html,,
556,Preto 1,South America,Brazil,Doce,"Uruguay - Brazil, South Atlantic Coast",9,-21.05208333,-42.489722,P,,,http://sigel.aneel.gov.br/sigel.html,,
557,Saltinho Do Itabapoana,South America,Brazil,Paraiba,"Uruguay - Brazil, South Atlantic Coast",5,-21.02303933,-41.71887267,P,,,http://sigel.aneel.gov.br/sigel.html,,
558,Eixo B1 A,South America,Brazil,Grande,La Plata,7.5,-20.929167,-46.65208333,P,,,http://sigel.aneel.gov.br/sigel.html,,
559,Eixo B3,South America,Brazil,Grande,La Plata,5,-20.92708333,-46.13125,P,,,http://sigel.aneel.gov.br/sigel.html,,
560,Brás Pires,South America,Brazil,Doce,"Uruguay - Brazil, South Atlantic Coast",5,-20.86458333,-43.270278,P,,,http://sigel.aneel.gov.br/sigel.html,,
561,São Lourenço,South America,Brazil,Paraiba,"Uruguay - Brazil, South Atlantic Coast",5.9,-20.8576385,-41.9951385,P,,,http://sigel.aneel.gov.br/sigel.html,,
562,Tuneco Alta,South America,Brazil,Grande,La Plata,9,-20.84875,-45.07625,P,,,http://sigel.aneel.gov.br/sigel.html,,
563,Ilha Da Luz,South America,Brazil,Paraiba,"Uruguay - Brazil, South Atlantic Coast",3,-20.834167,-41.12291667,U,,,http://sigel.aneel.gov.br/sigel.html,,
564,Santa Cruz,South America,Brazil,Doce,"Uruguay - Brazil, South Atlantic Coast",15,-20.82,-42.32,P,,,http://sigel.aneel.gov.br/sigel.html,,
565,Nova São João,South America,Brazil,Grande,La Plata,10,-20.803056,-46.70625,P,,,http://sigel.aneel.gov.br/sigel.html,,
566,Mariano,South America,Brazil,Doce,"Uruguay - Brazil, South Atlantic Coast",4.2,-20.79958333,-42.32041667,P,,,http://sigel.aneel.gov.br/sigel.html,,
567,São Francisco Do Glória,South America,Brazil,Doce,"Uruguay - Brazil, South Atlantic Coast",9.5,-20.793333,-42.31458333,P,,,http://sigel.aneel.gov.br/sigel.html,,
568,São Pedro,South America,Brazil,Doce,"Uruguay - Brazil, South Atlantic Coast",6.6,-20.75291667,-42.34458333,P,,,http://sigel.aneel.gov.br/sigel.html,,
569,Sapucaí,South America,Brazil,Grande,La Plata,12.4,-21.52954107,-45.69620773,P,,,http://sigel.aneel.gov.br/sigel.html,,
570,Porto Firme,South America,Brazil,Doce,"Uruguay - Brazil, South Atlantic Coast",16.5,-20.68263867,-43.08680533,P,,,http://sigel.aneel.gov.br/sigel.html,,
571,Fortaleza,South America,Brazil,Paraiba,"Uruguay - Brazil, South Atlantic Coast",11,-20.65346667,-41.54236667,P,,,http://sigel.aneel.gov.br/sigel.html,,
572,Santa Fé,South America,Brazil,,Sao Francisco,1.4,-20.64262667,-44.42179333,P,,,http://sigel.aneel.gov.br/sigel.html,,
573,Fábio Botelho Notini,South America,Brazil,,Sao Francisco,9.2,-20.61458333,-44.471667,P,,,http://sigel.aneel.gov.br/sigel.html,,
574,Cachoeira Grande,South America,Brazil,Doce,"Uruguay - Brazil, South Atlantic Coast",3.2,-20.60625,-42.605555,P,,,http://sigel.aneel.gov.br/sigel.html,,
575,Santa Rita,South America,Brazil,Pardo,La Plata,13.6,-20.59375,-47.74791667,P,,,http://sigel.aneel.gov.br/sigel.html,,
576,Guaraciaba,South America,Brazil,Doce,"Uruguay - Brazil, South Atlantic Coast",19.5,-20.57791667,-43.01958333,P,,,http://sigel.aneel.gov.br/sigel.html,,
577,Matilde,South America,Brazil,Doce,"Uruguay - Brazil, South Atlantic Coast",8,-20.5515,-40.8235,P,,,http://sigel.aneel.gov.br/sigel.html,,
578,Palmeiras,South America,Brazil,Grande,La Plata,16,-20.54751167,-47.81417833,U,,,http://sigel.aneel.gov.br/sigel.html,,
579,Cachoeira Escura,South America,Brazil,Doce,"Uruguay - Brazil, South Atlantic Coast",20.7,-20.51875,-42.66875,P,,,http://sigel.aneel.gov.br/sigel.html,,
580,Mainart,South America,Brazil,Doce,"Uruguay - Brazil, South Atlantic Coast",8,-20.47486067,-43.34597267,P,,,http://sigel.aneel.gov.br/sigel.html,,
581,Cantagalo,South America,Brazil,Doce,"Uruguay - Brazil, South Atlantic Coast",30,-20.46707908,-43.00375425,P,,,http://sigel.aneel.gov.br/sigel.html,,
582,Retiro,South America,Brazil,Grande,La Plata,16,-20.43541667,-47.90208333,U,,,http://sigel.aneel.gov.br/sigel.html,,
583,Caldeirões,South America,Brazil,Doce,"Uruguay - Brazil, South Atlantic Coast",15,-20.43124983,-43.19791683,P,,,http://sigel.aneel.gov.br/sigel.html,,
584,Marechal Floriano,South America,Brazil,Doce,"Uruguay - Brazil, South Atlantic Coast",26.1,-20.40625,-40.64791667,P,,,http://sigel.aneel.gov.br/sigel.html,,
585,Paraíso,South America,Brazil,Doce,"Uruguay - Brazil, South Atlantic Coast",10,-20.391944,-43.19791667,P,,,http://sigel.aneel.gov.br/sigel.html,,
586,Rc1,South America,Brazil,Doce,"Uruguay - Brazil, South Atlantic Coast",2.2,-20.39180567,-43.48347233,P,,,http://sigel.aneel.gov.br/sigel.html,,
587,Caquende,South America,Brazil,,Sao Francisco,4,-20.3876385,-44.1873615,P,,,http://sigel.aneel.gov.br/sigel.html,,
588,Juliões,South America,Brazil,,Sao Francisco,3.4,-20.366665,-44.195835,P,,,http://sigel.aneel.gov.br/sigel.html,,
589,Monjolinho,South America,Brazil,Grande,La Plata,16.8,-20.36458333,-48.00141202,P,,,http://sigel.aneel.gov.br/sigel.html,,
590,Pontal,South America,Brazil,Doce,"Uruguay - Brazil, South Atlantic Coast",29,-20.35375,-42.92125,P,,,http://sigel.aneel.gov.br/sigel.html,,
591,Covanca,South America,Brazil,Doce,"Uruguay - Brazil, South Atlantic Coast",11.5,-20.35361117,-43.16722217,P,,,http://sigel.aneel.gov.br/sigel.html,,
592,Rc2,South America,Brazil,Doce,"Uruguay - Brazil, South Atlantic Coast",5.8,-20.351944,-43.25625,P,,,http://sigel.aneel.gov.br/sigel.html,,
593,São Bento,South America,Brazil,Doce,"Uruguay - Brazil, South Atlantic Coast",16,-20.31458333,-40.65625,P,,,http://sigel.aneel.gov.br/sigel.html,,
594,Rosário,South America,Brazil,Doce,"Uruguay - Brazil, South Atlantic Coast",11,-20.30208333,-43.06458333,P,,,http://sigel.aneel.gov.br/sigel.html,,
595,Pedreira,South America,Brazil,Doce,"Uruguay - Brazil, South Atlantic Coast",11,-20.29577515,-40.69791667,P,,,http://sigel.aneel.gov.br/sigel.html,,
596,Bração,South America,Brazil,Velhas,Sao Francisco,1.22,-20.27291667,-43.80208333,P,,,http://sigel.aneel.gov.br/sigel.html,,
597,São Tiago,South America,Brazil,Indaiá,Sao Francisco,9,-20.24375,-46.19791667,P,,,http://sigel.aneel.gov.br/sigel.html,,
598,Talhado,South America,Brazil,Grande,La Plata,12,-20.21458333,-49.51239147,P,,,http://sigel.aneel.gov.br/sigel.html,,
599,Bonfim De Baixo,South America,Brazil,Doce,"Uruguay - Brazil, South Atlantic Coast",8.3,-20.193331,-42.34791667,P,,,http://sigel.aneel.gov.br/sigel.html,,
600,Melo Viana,South America,Brazil,Doce,"Uruguay - Brazil, South Atlantic Coast",9.66,-20.12222233,-42.40555567,P,,,http://sigel.aneel.gov.br/sigel.html,,
601,São José,South America,Brazil,,Sao Francisco,7,-20.16875,-44.801,P,,,http://sigel.aneel.gov.br/sigel.html,,
602,Foz Do Preto,South America,Brazil,Grande,La Plata,16,-20.17291667,-49.66458333,P,,,http://sigel.aneel.gov.br/sigel.html,,
603,São Domingos,South America,Brazil,Grande,La Plata,11.8,-20.17291667,-48.32708333,P,,,http://sigel.aneel.gov.br/sigel.html,,
604,Olinto Da Fonseca,South America,Brazil,Indaiá,Sao Francisco,4.5,-20.16555583,-46.25111083,P,,,http://sigel.aneel.gov.br/sigel.html,,
605,Jurumirim,South America,Brazil,Doce,"Uruguay - Brazil, South Atlantic Coast",18,-20.1445835,-42.6429165,P,,,http://sigel.aneel.gov.br/sigel.html,,
606,Santa Leopoldina,South America,Brazil,Doce,"Uruguay - Brazil, South Atlantic Coast",10,-20.08958333,-40.545278,P,,,http://sigel.aneel.gov.br/sigel.html,,
607,Engenho De Cima,South America,Brazil,Indaiá,Sao Francisco,13.3,-20.08291633,-46.34625033,P,,,http://sigel.aneel.gov.br/sigel.html,,
608,Timbuí Seco,South America,Brazil,Doce,"Uruguay - Brazil, South Atlantic Coast",16.8,-20.07708333,-40.60189298,P,,,http://sigel.aneel.gov.br/sigel.html,,
609,Sertãozinho,South America,Brazil,Indaiá,Sao Francisco,6.3,-20.05430517,-46.36652817,P,,,http://sigel.aneel.gov.br/sigel.html,,
610,Verde 4,South America,Brazil,Verde,La Plata,19,-19.97708333,-53.2717,P,,,http://sigel.aneel.gov.br/sigel.html,,
611,São Luiz,South America,Brazil,Doce,"Uruguay - Brazil, South Atlantic Coast",17.5,-19.96222233,-41.07944433,P,,,http://sigel.aneel.gov.br/sigel.html,,
612,Pasto De Grama,South America,Brazil,Doce,"Uruguay - Brazil, South Atlantic Coast",5.1,-19.955278,-41.42708333,P,,,http://sigel.aneel.gov.br/sigel.html,,
613,Santa Teresa,South America,Brazil,Doce,"Uruguay - Brazil, South Atlantic Coast",11.7,-19.93125,-40.42291667,P,,,http://sigel.aneel.gov.br/sigel.html,,
614,Perdigão,South America,Brazil,Indaiá,Sao Francisco,13,-19.89791667,-45.11041667,P,,,http://sigel.aneel.gov.br/sigel.html,,
615,Verde 4A,South America,Brazil,Verde,La Plata,28,-19.8744,-53.36875,P,,,http://sigel.aneel.gov.br/sigel.html,,
616,Sumidouro,South America,Brazil,Velhas,"Uruguay - Brazil, South Atlantic Coast",13,-19.11458333,-43.2333,P,,,http://sigel.aneel.gov.br/sigel.html,,
617,Taquari,South America,Brazil,Doce,"Uruguay - Brazil, South Atlantic Coast",24,-19.77833333,-43.10083333,P,,,http://sigel.aneel.gov.br/sigel.html,,
618,Chica Valadares,South America,Brazil,Doce,"Uruguay - Brazil, South Atlantic Coast",3.54,-19.67291667,-41.98,P,,,http://sigel.aneel.gov.br/sigel.html,,
619,Imbé I,South America,Brazil,Doce,"Uruguay - Brazil, South Atlantic Coast",2.33,-19.6094,-41.91875,P,,,http://sigel.aneel.gov.br/sigel.html,,
620,Água Limpa,South America,Brazil,Doce,"Uruguay - Brazil, South Atlantic Coast",16.5,-19.59791667,-42.748333,P,,,http://sigel.aneel.gov.br/sigel.html,,
621,Serra Do Azeite,South America,Brazil,Doce,"Uruguay - Brazil, South Atlantic Coast",13.5,-19.53958333,-41.66875,P,,,http://sigel.aneel.gov.br/sigel.html,,
622,Tabaúna,South America,Brazil,Doce,"Uruguay - Brazil, South Atlantic Coast",27,-19.49680567,-41.32402767,P,,,http://sigel.aneel.gov.br/sigel.html,,
623,Cachoeira Grande,South America,Brazil,Doce,"Uruguay - Brazil, South Atlantic Coast",10,-19.483333,-42.69791667,P,,,http://sigel.aneel.gov.br/sigel.html,,
624,Calcutá,South America,Brazil,Verde,La Plata,3.5,-19.42111117,-54.43722217,P,,,http://sigel.aneel.gov.br/sigel.html,,
625,Maringá,South America,Brazil,Verde,La Plata,4,-19.41875,-54.3975,P,,,http://sigel.aneel.gov.br/sigel.html,,
626,Ponte Vermelha,South America,Brazil,Verde,La Plata,5,-19.4151385,-54.3526385,P,,,http://sigel.aneel.gov.br/sigel.html,,
627,Lagoa Alta,South America,Brazil,Verde,La Plata,6,-19.4030555,-54.3030555,P,,,http://sigel.aneel.gov.br/sigel.html,,
628,Verde 6,South America,Brazil,Verde,La Plata,11,-19.56041667,-53.50208333,P,,,http://sigel.aneel.gov.br/sigel.html,,
629,São João,South America,Brazil,Paranaíba,La Plata,5.6,-19.30208333,-46.482747,P,,,http://sigel.aneel.gov.br/sigel.html,,
630,Indaiá Grande,South America,Brazil,Verde,La Plata,18.31,-19.28375,-52.39625,U,,,http://sigel.aneel.gov.br/sigel.html,,
631,Sapé,South America,Brazil,Doce,"Uruguay - Brazil, South Atlantic Coast",19.5,-19.278889,-42.97708333,P,,,http://sigel.aneel.gov.br/sigel.html,,
632,Sete Cachoeiras,South America,Brazil,Doce,"Uruguay - Brazil, South Atlantic Coast",17.6,-19.24875017,-42.94041683,P,,,http://sigel.aneel.gov.br/sigel.html,,
633,Pedra Branca,South America,Brazil,Verde,La Plata,14,-19.25625,-52.8,P,,,http://sigel.aneel.gov.br/sigel.html,,
634,Quinquim,South America,Brazil,Velhas,"Uruguay - Brazil, South Atlantic Coast",14,-19.22708333,-43.25,P,,,http://sigel.aneel.gov.br/sigel.html,,
635,Ferros,South America,Brazil,Doce,"Uruguay - Brazil, South Atlantic Coast",16.6,-19.23083333,-43.07666667,P,,,http://sigel.aneel.gov.br/sigel.html,,
636,Ferradura,South America,Brazil,Doce,"Uruguay - Brazil, South Atlantic Coast",23,-19.27138867,-42.97555533,P,,,http://sigel.aneel.gov.br/sigel.html,,
637,Santo Antônio,South America,Brazil,Velhas,"Uruguay - Brazil, South Atlantic Coast",7,-19.22008333,-43.25908333,P,,,http://sigel.aneel.gov.br/sigel.html,,
638,Indaiázinho (Ex. Indaiázinho Grande),South America,Brazil,Verde,La Plata,11.86,-19.20058333,-52.35358333,U,,,http://sigel.aneel.gov.br/sigel.html,,
639,Brejaúba,South America,Brazil,Doce,"Uruguay - Brazil, South Atlantic Coast",11,-19.2,-43.11875,P,,,http://sigel.aneel.gov.br/sigel.html,,
640,Ouro Fino,South America,Brazil,Doce,"Uruguay - Brazil, South Atlantic Coast",28.4,-19.21504543,-42.88912124,P,,,http://sigel.aneel.gov.br/sigel.html,,
641,Varginha,South America,Brazil,Paranaíba,La Plata,8,-19.182,-47.80625,P,,,http://sigel.aneel.gov.br/sigel.html,,
642,Monjolo,South America,Brazil,Doce,"Uruguay - Brazil, South Atlantic Coast",15,-19.16875,-43.13958333,P,,,http://sigel.aneel.gov.br/sigel.html,,
643,"Porcos (Km 50,9)",South America,Brazil,Velhas,"Uruguay - Brazil, South Atlantic Coast",5.5,-19.14525,-43.34225,P,,,http://sigel.aneel.gov.br/sigel.html,,
644,Peralta,South America,Brazil,Verde,La Plata,14.5,-19.134039,-54.21458333,P,,,http://sigel.aneel.gov.br/sigel.html,,
645,"Santa Rita (Km 14,8)",South America,Brazil,Doce,"Uruguay - Brazil, South Atlantic Coast",5,-19.13733333,-43.15433333,P,,,http://sigel.aneel.gov.br/sigel.html,,
646,"Axupé (Km 26,2)",South America,Brazil,Doce,"Uruguay - Brazil, South Atlantic Coast",5,-19.09791667,-43.171389,P,,,http://sigel.aneel.gov.br/sigel.html,,
647,Dores De Guanhães,South America,Brazil,Doce,"Uruguay - Brazil, South Atlantic Coast",14,-19.06458333,-42.88541667,P,,,http://sigel.aneel.gov.br/sigel.html,,
648,"São João (Km 35,6)",South America,Brazil,Jequitinhonha,"Uruguay - Brazil, South Atlantic Coast",10,-19.05972183,-43.19444483,P,,,http://sigel.aneel.gov.br/sigel.html,,
649,Lajeado,South America,Brazil,Verde,La Plata,11.1,-19.0569445,-52.5305555,P,,,http://sigel.aneel.gov.br/sigel.html,,
650,Jacu,South America,Brazil,Paranaíba,La Plata,10.2,-19.05208333,-48.995,P,,,http://sigel.aneel.gov.br/sigel.html,,
651,Senhora Do Porto,South America,Brazil,Doce,"Uruguay - Brazil, South Atlantic Coast",12,-19.0333,-42.92291667,P,,,http://sigel.aneel.gov.br/sigel.html,,
652,Água Vermelha,South America,Brazil,Taquari,La Plata,23.7,-19.01458333,-54.36343352,P,,,http://sigel.aneel.gov.br/sigel.html,,
653,Jacaré,South America,Brazil,Doce,"Uruguay - Brazil, South Atlantic Coast",9,-19,-42.94791667,P,,,http://sigel.aneel.gov.br/sigel.html,,
654,Bom Jardim,South America,Brazil,Paranaíba,La Plata,3.1,-18.99375,-48.269,P,,,http://sigel.aneel.gov.br/sigel.html,,
655,Fundãozinho,South America,Brazil,Verde,La Plata,29.6,-18.98541667,-53.166667,P,,,http://sigel.aneel.gov.br/sigel.html,,
656,Beija Flor Ii,South America,Brazil,Doce,"Uruguay - Brazil, South Atlantic Coast",20,-18.933333,-42.36458333,P,,,http://sigel.aneel.gov.br/sigel.html,,
657,Figueirinha I,South America,Brazil,Doce,"Uruguay - Brazil, South Atlantic Coast",13.5,-18.94847183,-42.56930517,P,,,http://sigel.aneel.gov.br/sigel.html,,
658,Cutia Alto,South America,Brazil,Paranaíba,La Plata,30,-18.94791667,-49.326,P,,,http://sigel.aneel.gov.br/sigel.html,,
659,Cruz Velha,South America,Brazil,Paranaíba,La Plata,22.8,-18.94375,-49.157,P,,,http://sigel.aneel.gov.br/sigel.html,,
660,Vila Verde,South America,Brazil,Doce,"Uruguay - Brazil, South Atlantic Coast",3.6,-18.93958333,-40.921111,P,,,http://sigel.aneel.gov.br/sigel.html,,
661,Pirapitanga Baixo,South America,Brazil,Paranaíba,La Plata,11.2,-18.93583333,-49.48083333,P,,,http://sigel.aneel.gov.br/sigel.html,,
662,Bugres,South America,Brazil,Paranaíba,La Plata,18.6,-18.91458333,-49.586,P,,,http://sigel.aneel.gov.br/sigel.html,,
663,Figueirinha Ii,South America,Brazil,Doce,"Uruguay - Brazil, South Atlantic Coast",8,-18.90558333,-42.64858333,P,,,http://sigel.aneel.gov.br/sigel.html,,
664,Salto Do Baú,South America,Brazil,Paranaíba,La Plata,19.8,-18.90433333,-49.66233333,P,,,http://sigel.aneel.gov.br/sigel.html,,
665,Dias,South America,Brazil,Paranaíba,La Plata,7.4,-18.88666667,-48.32166667,P,,,http://sigel.aneel.gov.br/sigel.html,,
666,Fortuna Ii,South America,Brazil,Doce,"Uruguay - Brazil, South Atlantic Coast",9,-18.89791667,-42.68125,P,,,http://sigel.aneel.gov.br/sigel.html,,
667,Andorinha,South America,Brazil,,Sao Francisco,10.1,-18.86458333,-44.808333,P,,,http://sigel.aneel.gov.br/sigel.html,,
668,Cachoeira Do Gambá,South America,Brazil,Paranaíba,La Plata,15.9,-18.86041667,-49.73541667,P,,,http://sigel.aneel.gov.br/sigel.html,,
669,São Domingos,South America,Brazil,Taquari,La Plata,22,-18.84791667,-54.51041667,P,,,http://sigel.aneel.gov.br/sigel.html,,
670,Mosquito,South America,Brazil,Paranaíba,La Plata,12.3,-18.81458333,-49.814,P,,,http://sigel.aneel.gov.br/sigel.html,,
671,Santo Antônio Do Porto,South America,Brazil,Doce,"Uruguay - Brazil, South Atlantic Coast",12.5,-18.754378,-42.166878,P,,,http://sigel.aneel.gov.br/sigel.html,,
672,Lajeadinho,South America,Brazil,Verde,La Plata,4.9,-18.74791667,-52.249,P,,,http://sigel.aneel.gov.br/sigel.html,,
673,Cachoeira Da Fumaça,South America,Brazil,Doce,"Uruguay - Brazil, South Atlantic Coast",9,-18.73958333,-42.302778,P,,,http://sigel.aneel.gov.br/sigel.html,,
674,Pontal Do Prata,South America,Brazil,Verde,La Plata,12,-18.7381,-52.29791667,U,,,http://sigel.aneel.gov.br/sigel.html,,
675,Cachoeira Do Miné,South America,Brazil,Paranaíba,La Plata,16.02,-18.73958333,-48.471,P,,,http://sigel.aneel.gov.br/sigel.html,,
676,Queixada,South America,Brazil,Verde,La Plata,30,-18.73108333,-51.79808333,U,,,http://sigel.aneel.gov.br/sigel.html,,
677,Mundo Novo,South America,Brazil,Taquari,La Plata,21.5,-18.85666667,-54.50166667,P,,,http://sigel.aneel.gov.br/sigel.html,,
678,Luzilândia,South America,Brazil,Doce,"Uruguay - Brazil, South Atlantic Coast",1.6,-18.72444417,-40.63388917,P,,,http://sigel.aneel.gov.br/sigel.html,,
679,Engano,South America,Brazil,Verde,La Plata,8,-18.71458333,-52.342,P,,,http://sigel.aneel.gov.br/sigel.html,,
680,Itaperuna,South America,Brazil,Doce,"Uruguay - Brazil, South Atlantic Coast",1.5,-18.71222267,-40.76638933,P,,,http://sigel.aneel.gov.br/sigel.html,,
681,Piau,South America,Brazil,Doce,"Uruguay - Brazil, South Atlantic Coast",17,-18.70208333,-41.799167,P,,,http://sigel.aneel.gov.br/sigel.html,,
682,Pirapitinga,South America,Brazil,Doce,"Uruguay - Brazil, South Atlantic Coast",11,-18.69317117,-42.20983783,P,,,http://sigel.aneel.gov.br/sigel.html,,
683,Vista Bela,South America,Brazil,Doce,"Uruguay - Brazil, South Atlantic Coast",1.4,-18.67708333,-40.98044172,P,,,http://sigel.aneel.gov.br/sigel.html,,
684,Quartel 1,South America,Brazil,Velhas,Sao Francisco,30,-18.66875,-43.88,P,,,http://sigel.aneel.gov.br/sigel.html,,
685,Ponte IndaiáJusante,South America,Brazil,São Francisco,Sao Francisco,5.82,-18.661383,-45.54791667,P,,,http://sigel.aneel.gov.br/sigel.html,,
686,Boa Vista,South America,Brazil,Doce,"Uruguay - Brazil, South Atlantic Coast",9,-18.660305,-42.24791667,P,,,http://sigel.aneel.gov.br/sigel.html,,
687,Pirapetinga,South America,Brazil,Paranaíba,La Plata,2,-18.654,-47.50625,P,,,http://sigel.aneel.gov.br/sigel.html,,
688,Dos Tocos,South America,Brazil,Paranaíba,La Plata,1.2,-18.64608333,-47.50808333,P,,,http://sigel.aneel.gov.br/sigel.html,,
689,Areado,South America,Brazil,São Francisco,Sao Francisco,10.9,-18.64375,-45.876667,P,,,http://sigel.aneel.gov.br/sigel.html,,
690,Retiro 1,South America,Brazil,Doce,"Uruguay - Brazil, South Atlantic Coast",19,-18.644028,-42.318472,P,,,http://sigel.aneel.gov.br/sigel.html,,
691,Quartel 2,South America,Brazil,Velhas,Sao Francisco,30,-18.63861133,-43.91555533,P,,,http://sigel.aneel.gov.br/sigel.html,,
692,Quartel 3,South America,Brazil,Velhas,Sao Francisco,30,-18.63125,-43.936111,P,,,http://sigel.aneel.gov.br/sigel.html,,
693,Lajinha,South America,Brazil,Paranaíba,La Plata,1.6,-18.6336,-47.52291667,P,,,http://sigel.aneel.gov.br/sigel.html,,
694,Limeira,South America,Brazil,Doce,"Uruguay - Brazil, South Atlantic Coast",14,-18.57402817,-41.94680517,P,,,http://sigel.aneel.gov.br/sigel.html,,
695,Bombas,South America,Brazil,São Francisco,Sao Francisco,14.5,-18.520833,-45.79791667,P,,,http://sigel.aneel.gov.br/sigel.html,,
696,Santa Maria,South America,Brazil,Doce,"Uruguay - Brazil, South Atlantic Coast",2.9,-18.58958333,-40.19791667,P,,,http://sigel.aneel.gov.br/sigel.html,,
697,Quebra Dedo,South America,Brazil,Doce,"Uruguay - Brazil, South Atlantic Coast",16,-18.442778,-42.032222,P,,,http://sigel.aneel.gov.br/sigel.html,,
